zip_code,city,county,state,latitude,longitude
501,holtsville,suffolk,ny,40.8154,-73.0456
544,holtsville,suffolk,ny,40.8154,-73.0456
601,adjuntas,adjuntas,pr,18.196747,-66.736735
602,aguada,aguada,pr,18.352927,-67.177532
603,ramey,aguadilla,pr,18.458585,-67.129867
603,aguadilla,aguadilla,pr,18.458585,-67.129867
604,aguadilla,aguadilla,pr,18.488773,-67.147741
604,ramey,aguadilla,pr,18.488773,-67.147741
605,aguadilla,aguadilla,pr,18.4289,-67.1538
606,maricao,maricao,pr,18.166734,-66.939233
610,anasco,anasco,pr,18.294649,-67.130034
611,angeles,utuado,pr,18.2856,-66.9698
612,arecibo,arecibo,pr,18.388009,-66.665279
613,arecibo,arecibo,pr,18.4744,-66.7163
614,arecibo,arecibo,pr,18.4744,-66.7163
616,bajadero,arecibo,pr,18.405484,-66.671233
617,barceloneta,barceloneta,pr,18.429792,-66.558109
622,boqueron,cabo rojo,pr,17.992876,-67.153699
623,cabo rojo,cabo rojo,pr,18.040203,-67.146574
624,penuelas,penuelas,pr,18.072797,-66.724825
627,camuy,camuy,pr,18.425195,-66.867756
631,adjuntas,lares,pr,18.224554,-66.867756
631,castaner,lares,pr,18.224554,-66.867756
636,rosario,san german,pr,18.1647,-67.0797
637,sabana grande,sabana grande,pr,18.077592,-66.939232
638,ciales,ciales,pr,18.299662,-66.498579
641,utuado,utuado,pr,18.279721,-66.689096
646,dorado,dorado,pr,18.459098,-66.272418
647,ensenada,guanica,pr,17.97252,-66.945189
650,florida,florida,pr,18.363009,-66.558109
652,garrochales,arecibo,pr,18.451909,-66.599784
653,guanica,guanica,pr,17.982516,-66.891581
656,guayanilla,guayanilla,pr,18.037324,-66.796287
659,hatillo,hatillo,pr,18.416025,-66.796287
660,hormigueros,hormigueros,pr,18.138245,-67.111993
662,isabela,isabela,pr,18.45613,-67.02263
664,jayuya,jayuya,pr,18.210309,-66.581923
667,lajas,lajas,pr,18.010034,-67.02263
669,lares,lares,pr,18.291418,-66.867756
670,las marias,las marias,pr,18.239633,-66.986887
670,las marias,anasco,pr,18.239633,-66.986887
670,las marias,camuy,pr,18.239633,-66.986887
674,manati,manati,pr,18.433168,-66.498579
676,moca,moca,pr,18.385559,-67.082204
677,rincon,rincon,pr,18.331739,-67.231158
678,quebradillas,quebradillas,pr,18.431293,-66.915406
680,mayaguez,mayaguez,pr,18.210009,-67.106035
681,mayaguez,mayaguez,pr,18.1211,-67.0824
682,mayaguez,mayaguez,pr,18.220812,-67.147741
683,san german,san german,pr,18.099194,-67.02263
685,san sebastian,san sebastian,pr,18.316188,-66.974973
687,morovis,morovis,pr,18.322194,-66.415246
688,sabana hoyos,arecibo,pr,18.349991,-66.629553
690,san antonio,aguadilla,pr,18.50189,-67.097099
692,vega alta,vega alta,pr,18.4018,-66.343828
693,vega baja,vega baja,pr,18.420721,-66.403342
694,vega baja,vega baja,pr,18.4465,-66.3884
694,vega baja,vega alta,pr,18.4465,-66.3884
698,yauco,yauco,pr,18.090875,-66.867756
703,aguas buenas,aguas buenas,pr,18.262566,-66.129629
704,aguirre,salinas,pr,17.980199,-66.218868
704,aguirre,guayama,pr,17.980199,-66.218868
705,aibonito,aibonito,pr,18.135403,-66.260518
707,maunabo,maunabo,pr,18.012675,-65.915522
714,arroyo,arroyo,pr,17.987052,-66.058249
715,ponce,ponce,pr,18.007113,-66.558109
715,mercedita,ponce,pr,18.007113,-66.558109
716,ponce,ponce,pr,17.987655,-66.6236
716,mercedita,ponce,pr,17.987655,-66.6236
717,ponce,ponce,pr,18.000417,-66.614669
718,naguabo,naguabo,pr,18.25005,-65.784727
719,naranjito,naranjito,pr,18.278197,-66.248617
720,orocovis,orocovis,pr,18.20454,-66.450958
721,palmer,rio grande,pr,18.3018,-66.08
721,rio grande,rio grande,pr,18.3018,-66.08
723,patillas,patillas,pr,18.025158,-66.010668
725,caguas,caguas,pr,18.205646,-66.034458
726,caguas,caguas,pr,18.2364,-66.0489
727,caguas,caguas,pr,18.21671,-66.055275
728,ponce,ponce,pr,18.019233,-66.65337
729,canovanas,canovanas,pr,18.341924,-65.891738
730,ponce,ponce,pr,18.032129,-66.6236
731,ponce,ponce,pr,18.095571,-66.641462
732,ponce,ponce,pr,18.0133,-66.6146
733,ponce,ponce,pr,18.0133,-66.6146
734,ponce,ponce,pr,18.0133,-66.6146
735,roosevelt roads,ceiba,pr,18.243581,-65.653972
735,roosevelt rds,ceiba,pr,18.243581,-65.653972
735,ceiba,ceiba,pr,18.243581,-65.653972
736,cayey,cayey,pr,18.078621,-66.165322
737,cayey,cayey,pr,18.1138,-66.1667
738,fajardo,fajardo,pr,18.30999,-65.653972
739,cidra,cidra,pr,18.176915,-66.153424
740,puerto real,fajardo,pr,18.338024,-65.593093
741,punta stgo,humacao,pr,18.16462,-65.766894
741,punta santiago,humacao,pr,18.16462,-65.766894
742,ceiba,ceiba,pr,18.2666,-65.6482
742,roosevelt roads,ceiba,pr,18.2666,-65.6482
742,roosevelt rds,ceiba,pr,18.2666,-65.6482
744,rio blanco,naguabo,pr,18.2202,-65.7902
745,rio grande,rio grande,pr,18.34505,-65.832284
745,rio grande,canovanas,pr,18.34505,-65.832284
745,rio grande,humacao,pr,18.34505,-65.832284
751,salinas,salinas,pr,18.002225,-66.260518
754,san lorenzo,san lorenzo,pr,18.142369,-65.974986
757,santa isabel,santa isabel,pr,17.985792,-66.391439
765,vieques,vieques,pr,18.126285,-65.440098
766,villalba,villalba,pr,18.13,-66.474329
767,yabucoa,yabucoa,pr,18.068802,-65.903106
769,coamo,coamo,pr,18.096036,-66.351012
771,las piedras,las piedras,pr,18.19644,-65.87203
772,loiza,loiza,pr,18.419378,-65.910867
773,luquillo,luquillo,pr,18.338815,-65.720102
775,culebra,culebra,pr,18.313697,-65.294233
777,juncos,juncos,pr,18.206518,-65.901732
778,gurabo,gurabo,pr,18.258919,-65.974639
780,coto laurel,ponce,pr,18.071098,-66.562869
780,ponce,ponce,pr,18.071098,-66.562869
782,comerio,comerio,pr,18.225014,-66.219798
783,corozal,corozal,pr,18.304629,-66.330493
784,guayama,guayama,pr,18.018004,-66.133308
785,guayama,guayanilla,pr,17.98,-66.1101
785,guayama,guayama,pr,17.98,-66.1101
786,la plata,aibonito,pr,18.1564,-66.2336
791,humacao,humacao,pr,18.138009,-65.818996
792,humacao,humacao,pr,18.1519,-65.8279
794,barranquitas,barranquitas,pr,18.200791,-66.307012
795,juana diaz,juana diaz,pr,18.017302,-66.493329
801,charlotte amalie,saint thomas,vi,18.3436,-64.9314
801,charlotte ama,saint thomas,vi,18.3436,-64.9314
801,st thomas,saint thomas,vi,18.3436,-64.9314
802,charlotte ama,saint thomas,vi,18.3436,-64.9322
802,charlotte amalie,saint thomas,vi,18.3436,-64.9322
802,st thomas,saint thomas,vi,18.3436,-64.9322
803,charlotte ama,saint thomas,vi,18.3436,-64.9314
803,charlotte amalie,saint thomas,vi,18.3436,-64.9314
803,st thomas,saint thomas,vi,18.3436,-64.9314
804,charlotte ama,saint thomas,vi,18.3436,-64.9314
804,charlotte amalie,saint thomas,vi,18.3436,-64.9314
804,st thomas,saint thomas,vi,18.3436,-64.9314
805,st thomas,saint thomas,vi,18.3436,-64.9314
820,christiansted,saint croix,vi,17.745384,-64.703369
820,st croix,saint croix,vi,17.745384,-64.703369
821,christiansted,saint croix,vi,17.7488,-64.7039
822,christiansted,saint croix,vi,17.7488,-64.7039
823,christiansted,saint croix,vi,17.7488,-64.7039
823,st croix,saint croix,vi,17.7488,-64.7039
824,st croix,saint croix,vi,17.7488,-64.7039
824,christiansted,saint croix,vi,17.7488,-64.7039
830,st john,saint john,vi,18.3282,-64.7407
830,cruz bay,saint john,vi,18.3282,-64.7407
831,st john,saint john,vi,18.3333,-64.7943
831,cruz bay,saint john,vi,18.3333,-64.7943
840,frederiksted,saint croix,vi,17.712409,-64.882164
841,frederiksted,saint croix,vi,17.7147,-64.8818
850,kingshill,saint croix,vi,17.723,-64.78295
851,kingshill,saint croix,vi,17.7253,-64.7836
901,old san juan,san juan,pr,18.4654,-66.104373
901,viejo san juan,san juan,pr,18.4654,-66.104373
901,san juan,san juan,pr,18.4654,-66.104373
901,viejo sn juan,san juan,pr,18.4654,-66.104373
902,san juan,san juan,pr,18.4683,-66.1061
902,old san juan,san juan,pr,18.4683,-66.1061
902,viejo san juan,san juan,pr,18.4683,-66.1061
902,viejo sn juan,san juan,pr,18.4683,-66.1061
906,puerta de tierra,san juan,pr,18.46462,-66.10078
906,san juan,san juan,pr,18.46462,-66.10078
906,pta de tierra,san juan,pr,18.46462,-66.10078
907,miramar,san juan,pr,18.451852,-66.084976
907,condado,san juan,pr,18.451852,-66.084976
907,santurce,san juan,pr,18.451852,-66.084976
907,san juan,san juan,pr,18.451852,-66.084976
908,san juan,san juan,pr,18.4683,-66.1061
909,san juan,san juan,pr,18.441112,-66.066068
909,minillas,san juan,pr,18.441112,-66.066068
909,fdez juncos,san juan,pr,18.441112,-66.066068
909,fernandez juncos,san juan,pr,18.441112,-66.066068
909,santurce,san juan,pr,18.441112,-66.066068
910,fdez juncos,san juan,pr,18.45,-66.07
910,san juan,san juan,pr,18.45,-66.07
910,fernandez juncos,san juan,pr,18.45,-66.07
911,san juan,san juan,pr,18.451408,-66.057889
911,santurce,san juan,pr,18.451408,-66.057889
912,san juan,san juan,pr,18.445384,-66.061116
912,santurce,san juan,pr,18.445384,-66.061116
913,santurce,san juan,pr,18.450365,-66.044399
913,isla verde,san juan,pr,18.450365,-66.044399
913,san juan,san juan,pr,18.450365,-66.044399
914,santurce,san juan,pr,18.4683,-66.1061
914,san juan,san juan,pr,18.4683,-66.1061
915,bo obrero,san juan,pr,18.437208,-66.044602
915,san juan,san juan,pr,18.437208,-66.044602
915,barrio obrero,san juan,pr,18.437208,-66.044602
915,santurce,san juan,pr,18.437208,-66.044602
916,barrio obrero,san juan,pr,18.4683,-66.1061
916,san juan,san juan,pr,18.4683,-66.1061
916,santurce,san juan,pr,18.4683,-66.1061
917,san juan,san juan,pr,18.421194,-66.049352
917,hato rey,san juan,pr,18.421194,-66.049352
918,san juan,san juan,pr,18.423656,-66.067402
919,san juan,san juan,pr,18.4683,-66.1061
919,hato rey,san juan,pr,18.4683,-66.1061
920,caparra terrace,san juan,pr,18.416061,-66.089552
920,puerto nuevo,san juan,pr,18.416061,-66.089552
920,caparra ter,san juan,pr,18.416061,-66.089552
920,caparra,san juan,pr,18.416061,-66.089552
920,pto nuevo,san juan,pr,18.416061,-66.089552
920,caparra hills,san juan,pr,18.416061,-66.089552
920,san juan,san juan,pr,18.416061,-66.089552
921,pto nuevo,san juan,pr,18.390532,-66.08842
921,puerto nuevo,san juan,pr,18.390532,-66.08842
921,rio piedras,san juan,pr,18.390532,-66.08842
921,college park,san juan,pr,18.390532,-66.08842
921,san juan,san juan,pr,18.390532,-66.08842
922,caparra,san juan,pr,18.4683,-66.1061
922,caparra ter,san juan,pr,18.4683,-66.1061
922,san juan,san juan,pr,18.4683,-66.1061
922,caparra terrace,san juan,pr,18.4683,-66.1061
922,caparra hills,san juan,pr,18.4683,-66.1061
923,san juan,san juan,pr,18.41138,-66.033958
924,rio piedras,san juan,pr,18.400569,-66.00496
924,san juan,san juan,pr,18.400569,-66.00496
925,rio piedras,san juan,pr,18.403282,-66.047812
925,san juan,san juan,pr,18.403282,-66.047812
926,san juan,san juan,pr,18.34646,-66.062461
926,cupey,san juan,pr,18.34646,-66.062461
926,rio piedras,san juan,pr,18.34646,-66.062461
927,rio piedras,san juan,pr,18.38759,-66.072006
927,san juan,san juan,pr,18.38759,-66.072006
928,rio piedras,san juan,pr,18.4683,-66.1061
928,san juan,san juan,pr,18.4683,-66.1061
929,san juan,san juan,pr,18.4683,-66.1061
929,rio piedras,san juan,pr,18.4683,-66.1061
930,rio piedras,san juan,pr,18.45,-66.06
930,san juan,san juan,pr,18.45,-66.06
930,san jose,san juan,pr,18.45,-66.06
931,san juan,san juan,pr,18.4683,-66.1061
931,rio piedras,san juan,pr,18.4683,-66.1061
933,san juan,san juan,pr,18.4683,-66.1061
934,fort buchanan,guaynabo,pr,18.412973,-66.119834
934,fort buchanan,bayamon,pr,18.412973,-66.119834
935,san juan,san juan,pr,18.4683,-66.1061
936,rio piedras,san juan,pr,18.4683,-66.1061
936,minillas,san juan,pr,18.4683,-66.1061
936,caparra,san juan,pr,18.4683,-66.1061
936,barrio obrero,san juan,pr,18.4683,-66.1061
936,old san juan,san juan,pr,18.4683,-66.1061
936,cupey,san juan,pr,18.4683,-66.1061
936,san juan,san juan,pr,18.4683,-66.1061
936,san jose,san juan,pr,18.4683,-66.1061
936,santurce,san juan,pr,18.4683,-66.1061
937,san juan,san juan,pr,18.4683,-66.1061
939,san juan,san juan,pr,18.4683,-66.1061
940,minillas,san juan,pr,18.466229,-66.105735
940,san juan,san juan,pr,18.466229,-66.105735
940,santurce,san juan,pr,18.466229,-66.105735
949,levittown,toa baja,pr,18.432704,-66.199115
949,toa baja,toa baja,pr,18.432704,-66.199115
950,toa baja,toa baja,pr,18.444524,-66.255037
951,toa baja,toa baja,pr,18.4456,-66.26
952,sabana seca,toa baja,pr,18.428378,-66.180376
953,toa alta,toa alta,pr,18.357812,-66.258113
954,toa alta,toa alta,pr,18.3905,-66.2487
955,san juan,san juan,pr,18.4697,-66.1179
956,bayamon,bayamon,pr,18.323022,-66.172992
957,bayamon,bayamon,pr,18.36724,-66.185126
958,bayamon,bayamon,pr,18.4008,-66.1589
959,bayamon,bayamon,pr,18.392506,-66.158212
960,bayamon,bayamon,pr,18.393064,-66.154817
961,bayamon,bayamon,pr,18.413087,-66.161162
962,catano,catano,pr,18.441765,-66.140217
963,catano,catano,pr,18.1103,-66.17
965,guaynabo,guaynabo,pr,18.430034,-66.119902
966,guaynabo,guaynabo,pr,18.39779,-66.116071
968,guaynabo,guaynabo,pr,18.414026,-66.108363
969,guaynabo,guaynabo,pr,18.330998,-66.112285
970,guaynabo,guaynabo,pr,18.359214,-66.110296
971,guaynabo,guaynabo,pr,18.330223,-66.114506
975,san juan,san juan,pr,18.4683,-66.1064
976,trujillo,trujillo alto,pr,18.337034,-65.990043
976,trujillo,san juan,pr,18.337034,-65.990043
976,trujillo alto,san juan,pr,18.337034,-65.990043
976,trujillo alto,trujillo alto,pr,18.337034,-65.990043
977,trujillo alto,trujillo alto,pr,18.3569,-66.0076
977,trujillo,trujillo alto,pr,18.3569,-66.0076
978,saint just,trujillo alto,pr,18.3703,-66.0123
979,carolina,san juan,pr,18.438381,-66.011814
979,carolina,carolina,pr,18.438381,-66.011814
981,carolina,carolina,pr,18.4683,-66.1064
981,carolina,san juan,pr,18.4683,-66.1064
982,carolina,carolina,pr,18.409908,-65.997644
983,carolina,carolina,pr,18.415614,-65.977729
984,carolina,carolina,pr,18.3828,-65.9578
985,carolina,carolina,pr,18.406221,-65.943942
986,carolina,carolina,pr,18.3828,-65.9578
987,carolina,carolina,pr,18.331133,-65.950318
988,carolina,carolina,pr,18.3828,-65.9578
1001,agawam,hampden,ma,42.065842,-72.620948
1002,cushman,hampshire,ma,42.372901,-72.450902
1002,amherst,hampshire,ma,42.372901,-72.450902
1002,pelham,hampshire,ma,42.372901,-72.450902
1003,amherst,hampshire,ma,42.39115,-72.524316
1004,amherst,hampshire,ma,42.3736,-72.5209
1005,barre,worcester,ma,42.420844,-72.10623
1007,belchertown,hampshire,ma,42.274798,-72.401922
1008,blandford,hampden,ma,42.186964,-72.956111
1009,bondsville,hampden,ma,42.2075,-72.3496
1010,brimfield,hampden,ma,42.126637,-72.204617
1011,chester,hampden,ma,42.268566,-72.980845
1011,chester,hampshire,ma,42.268566,-72.980845
1012,chesterfield,hampshire,ma,42.365393,-72.819914
1013,chicopee,hampden,ma,42.160827,-72.603375
1013,willimansett,hampden,ma,42.160827,-72.603375
1014,chicopee,hampden,ma,42.1486,-72.6085
1020,chicopee,hampden,ma,42.17762,-72.562566
1021,chicopee,hampden,ma,42.1486,-72.6085
1022,westover afb,hampden,ma,42.195565,-72.542478
1022,chicopee,hampden,ma,42.195565,-72.542478
1026,cummington,hampshire,ma,42.441033,-72.915573
1027,e hampton,hampshire,ma,42.292895,-72.717599
1027,mount tom,hampshire,ma,42.292895,-72.717599
1027,easthampton,hampshire,ma,42.292895,-72.717599
1027,westhampton,hampshire,ma,42.292895,-72.717599
1028,east longmeadow,hampden,ma,42.06166,-72.498771
1028,e longmeadow,hampden,ma,42.06166,-72.498771
1029,east otis,berkshire,ma,42.192033,-73.045339
1030,feeding hills,hampden,ma,42.070474,-72.675174
1031,gilbertville,worcester,ma,42.3611,-72.20382
1032,goshen,hampshire,ma,42.454455,-72.826714
1033,granby,hampshire,ma,42.257915,-72.505683
1034,tolland,hampden,ma,42.092408,-72.949682
1034,granville,hampden,ma,42.092408,-72.949682
1035,hadley,hampshire,ma,42.356251,-72.585014
1036,hampden,hampden,ma,42.072956,-72.416626
1037,hardwick,worcester,ma,42.378705,-72.192186
1038,hatfield,hampshire,ma,42.3863,-72.60588
1039,haydenville,hampshire,ma,42.411178,-72.688894
1039,west whately,hampshire,ma,42.411178,-72.688894
1040,holyoke,hampden,ma,42.222692,-72.640474
1041,holyoke,hampden,ma,42.2043,-72.6167
1050,huntington,hampshire,ma,42.270928,-72.903169
1050,montgomery,hampshire,ma,42.270928,-72.903169
1053,leeds,hampshire,ma,42.352158,-72.715494
1054,leverett,hampshire,ma,42.475356,-72.487555
1054,leverett,franklin,ma,42.475356,-72.487555
1056,ludlow,hampden,ma,42.192007,-72.45872
1057,monson,hampden,ma,42.095536,-72.312918
1059,north amherst,hampshire,ma,42.3738,-72.5205
1059,amherst,hampshire,ma,42.3738,-72.5205
1060,northampton,hampshire,ma,42.329604,-72.625124
1061,northampton,hampshire,ma,42.3251,-72.6418
1062,bay state village,hampshire,ma,42.330067,-72.692655
1062,bay state vlg,hampshire,ma,42.330067,-72.692655
1062,florence,hampshire,ma,42.330067,-72.692655
1062,northampton,hampshire,ma,42.330067,-72.692655
1063,northampton,hampshire,ma,42.31822,-72.637674
1066,north hatfield,hampshire,ma,42.4107,-72.6253
1066,n hatfield,hampshire,ma,42.4107,-72.6253
1068,oakham,worcester,ma,42.353309,-72.051399
1069,palmer,hampden,ma,42.192062,-72.307682
1070,plainfield,hampshire,ma,42.519603,-72.925186
1071,russell,hampden,ma,42.169224,-72.854502
1072,shutesbury,franklin,ma,42.463022,-72.419998
1073,southampton,hampshire,ma,42.230586,-72.741034
1074,south barre,worcester,ma,42.3824,-72.0998
1075,south hadley,hampden,ma,42.258591,-72.575936
1075,south hadley,hampshire,ma,42.258591,-72.575936
1077,southwick,hampden,ma,42.049922,-72.772197
1079,thorndike,hampden,ma,42.1968,-72.3271
1080,three rivers,hampden,ma,42.178348,-72.370504
1081,wales,hampden,ma,42.061818,-72.231415
1082,hardwick,hampshire,ma,42.288872,-72.277566
1082,ware,hampshire,ma,42.288872,-72.277566
1083,warren,worcester,ma,42.202992,-72.197431
1084,west chesterfield,hampshire,ma,42.386792,-72.879415
1084,w chesterfld,hampshire,ma,42.386792,-72.879415
1085,montgomery,hampden,ma,42.162725,-72.771374
1085,westfield,hampden,ma,42.162725,-72.771374
1086,westfield,hampden,ma,42.1253,-72.7501
1088,w hatfield,hampshire,ma,42.388711,-72.646558
1088,west hatfield,hampshire,ma,42.388711,-72.646558
1089,west springfield,hampden,ma,42.125682,-72.641677
1089,w springfield,hampden,ma,42.125682,-72.641677
1090,west springfield,hampden,ma,42.1068,-72.6206
1090,w springfield,hampden,ma,42.1068,-72.6206
1092,west warren,worcester,ma,42.202417,-72.221696
1093,whately,franklin,ma,42.4399,-72.6353
1094,wheelwright,worcester,ma,42.3517,-72.1405
1095,wilbraham,hampden,ma,42.134675,-72.432176
1096,williamsburg,hampshire,ma,42.436118,-72.770062
1097,woronoco,hampden,ma,42.1594,-72.8751
1098,worthington,hampshire,ma,42.390244,-72.947238
1101,springfield,hampden,ma,42.105696,-72.598079
1102,springfield,hampden,ma,42.1015,-72.5905
1103,springfield,hampden,ma,42.103366,-72.590557
1104,springfield,hampden,ma,42.12954,-72.569176
1105,springfield,hampden,ma,42.100995,-72.581566
1106,longmeadow,hampden,ma,42.05056,-72.565884
1106,springfield,hampden,ma,42.05056,-72.565884
1107,springfield,hampden,ma,42.121306,-72.60891
1108,springfield,hampden,ma,42.08114,-72.557783
1109,springfield,hampden,ma,42.118748,-72.549032
1111,springfield,hampden,ma,42.1015,-72.5905
1115,springfield,hampden,ma,42.1015,-72.5905
1116,longmeadow,hampden,ma,42.0647,-72.5131
1116,east longmeadow,hampden,ma,42.0647,-72.5131
1116,e longmeadow,hampden,ma,42.0647,-72.5131
1118,springfield,hampden,ma,42.095584,-72.524304
1119,springfield,hampden,ma,42.122508,-72.511518
1128,springfield,hampden,ma,42.095804,-72.485598
1129,springfield,hampden,ma,42.120974,-72.487872
1138,springfield,hampden,ma,42.1015,-72.5905
1139,springfield,hampden,ma,42.1015,-72.5905
1144,springfield,hampden,ma,42.1032,-72.5916
1151,springfield,hampden,ma,42.151278,-72.510524
1151,indian orchard,hampden,ma,42.151278,-72.510524
1151,indian orch,hampden,ma,42.151278,-72.510524
1152,springfield,hampden,ma,42.1028,-72.5921
1199,springfield,hampden,ma,42.1015,-72.5905
1201,pittsfield,berkshire,ma,42.466531,-73.289364
1202,pittsfield,berkshire,ma,42.4501,-73.2456
1203,pittsfield,berkshire,ma,42.4501,-73.2456
1220,adams,berkshire,ma,42.627128,-73.11869
1222,ashley falls,berkshire,ma,42.065432,-73.316479
1223,becket,berkshire,ma,42.324078,-73.130876
1223,becket,hampden,ma,42.324078,-73.130876
1223,washington,hampden,ma,42.324078,-73.130876
1223,washington,berkshire,ma,42.324078,-73.130876
1224,berkshire,berkshire,ma,42.503468,-73.202113
1224,lanesborough,berkshire,ma,42.503468,-73.202113
1225,cheshire,berkshire,ma,42.558246,-73.147934
1226,dalton,berkshire,ma,42.47662,-73.146709
1227,dalton,berkshire,ma,42.4739,-73.1667
1229,glendale,berkshire,ma,42.2836,-73.3445
1230,n egremont,berkshire,ma,42.171162,-73.330261
1230,gt barrington,berkshire,ma,42.171162,-73.330261
1230,egremont,berkshire,ma,42.171162,-73.330261
1230,north egremont,berkshire,ma,42.171162,-73.330261
1230,new marlborou,berkshire,ma,42.171162,-73.330261
1230,great barrington,berkshire,ma,42.171162,-73.330261
1230,simons rock,berkshire,ma,42.171162,-73.330261
1230,new marlboro,berkshire,ma,42.171162,-73.330261
1230,new marlborough,berkshire,ma,42.171162,-73.330261
1235,hinsdale,berkshire,ma,42.3959,-73.076287
1235,peru,berkshire,ma,42.3959,-73.076287
1236,housatonic,berkshire,ma,42.263088,-73.383452
1237,new ashford,berkshire,ma,42.560748,-73.244402
1237,hancock,berkshire,ma,42.560748,-73.244402
1237,lanesborough,berkshire,ma,42.560748,-73.244402
1238,lee,berkshire,ma,42.287955,-73.206905
1240,lenox,berkshire,ma,42.366471,-73.271106
1242,lenox dale,berkshire,ma,42.339438,-73.246692
1243,middlefield,hampshire,ma,42.348104,-73.002747
1244,mill river,berkshire,ma,42.137294,-73.195265
1245,west otis,berkshire,ma,42.179822,-73.196867
1245,monterey,berkshire,ma,42.179822,-73.196867
1247,north adams,berkshire,ma,42.695558,-73.087992
1247,florida,berkshire,ma,42.695558,-73.087992
1247,clarksburg,berkshire,ma,42.695558,-73.087992
1252,n egremont,berkshire,ma,42.1967,-73.4386
1252,north egremont,berkshire,ma,42.1967,-73.4386
1253,otis,berkshire,ma,42.195522,-73.094484
1254,richmond,berkshire,ma,42.379056,-73.365874
1255,sandisfield,berkshire,ma,42.113526,-73.119992
1256,savoy,berkshire,ma,42.589611,-73.022988
1257,sheffield,berkshire,ma,42.10393,-73.367684
1258,mt washington,berkshire,ma,42.102233,-73.46408
1258,s egremont,berkshire,ma,42.102233,-73.46408
1258,south egremont,berkshire,ma,42.102233,-73.46408
1258,mount washington,berkshire,ma,42.102233,-73.46408
1259,southfield,berkshire,ma,42.079208,-73.238182
1260,south lee,berkshire,ma,42.2775,-73.2778
1262,stockbridge,berkshire,ma,42.296779,-73.32588
1263,stockbridge,berkshire,ma,42.2878,-73.3208
1264,tyringham,berkshire,ma,42.22651,-73.197611
1264,lee,berkshire,ma,42.22651,-73.197611
1266,alford,berkshire,ma,42.288658,-73.377778
1266,west stockbridge,berkshire,ma,42.288658,-73.377778
1266,w stockbridge,berkshire,ma,42.288658,-73.377778
1267,williamstown,berkshire,ma,42.642268,-73.252598
1270,windsor,berkshire,ma,42.51307,-73.050235
1301,greenfield,franklin,ma,42.631883,-72.59742
1301,leyden,franklin,ma,42.631883,-72.59742
1302,greenfield,franklin,ma,42.5878,-72.6003
1330,ashfield,franklin,ma,42.525896,-72.80934
1331,athol,worcester,ma,42.560683,-72.183898
1331,phillipston,worcester,ma,42.560683,-72.183898
1337,bernardston,franklin,ma,42.690129,-72.585089
1337,leyden,franklin,ma,42.690129,-72.585089
1338,buckland,franklin,ma,42.580045,-72.800323
1339,hawley,franklin,ma,42.63166,-72.878137
1339,charlemont,franklin,ma,42.63166,-72.878137
1340,colrain,franklin,ma,42.675342,-72.740774
1340,shattuckville,franklin,ma,42.675342,-72.740774
1341,conway,franklin,ma,42.509748,-72.699049
1342,deerfield,franklin,ma,42.539988,-72.618433
1343,drury,berkshire,ma,42.651664,-72.990795
1344,erving,franklin,ma,42.608914,-72.42456
1346,charlemont,franklin,ma,42.665724,-72.833294
1346,heath,franklin,ma,42.665724,-72.833294
1347,lake pleasant,franklin,ma,42.5567,-72.5186
1349,millers falls,franklin,ma,42.573938,-72.484196
1350,monroe,franklin,ma,42.721188,-72.975162
1350,monroe bridge,franklin,ma,42.721188,-72.975162
1351,montague,franklin,ma,42.548217,-72.511166
1354,mount hermon,franklin,ma,42.63841,-72.509488
1354,gill,franklin,ma,42.63841,-72.509488
1354,mt hermon,franklin,ma,42.63841,-72.509488
1354,northfield mount hermon,franklin,ma,42.63841,-72.509488
1354,northfield mt hermon,franklin,ma,42.63841,-72.509488
1355,new salem,franklin,ma,42.426036,-72.316418
1360,northfield,franklin,ma,42.666519,-72.446882
1364,orange,franklin,ma,42.620458,-72.294444
1364,warwick,franklin,ma,42.620458,-72.294444
1366,petersham,franklin,ma,42.445872,-72.213524
1366,petersham,worcester,ma,42.445872,-72.213524
1367,rowe,franklin,ma,42.69587,-72.934949
1368,royalston,worcester,ma,42.670469,-72.197026
1368,s royalston,worcester,ma,42.670469,-72.197026
1370,shelburne falls,franklin,ma,42.601438,-72.739108
1370,shelburne fls,franklin,ma,42.601438,-72.739108
1373,s deerfield,franklin,ma,42.464914,-72.61716
1373,south deerfield,franklin,ma,42.464914,-72.61716
1375,sunderland,franklin,ma,42.466106,-72.555454
1376,turners falls,franklin,ma,42.593404,-72.540041
1378,warwick,franklin,ma,42.666338,-72.344874
1378,orange,franklin,ma,42.666338,-72.344874
1379,wendell,franklin,ma,42.554654,-72.408295
1380,wendell depot,franklin,ma,42.588368,-72.395956
1420,fitchburg,worcester,ma,42.582812,-71.80659
1430,ashburnham,worcester,ma,42.655656,-71.922012
1431,ashby,middlesex,ma,42.673591,-71.834337
1432,ayer,middlesex,ma,42.562912,-71.568824
1434,devens,worcester,ma,42.534958,-71.611484
1434,ayer,worcester,ma,42.534958,-71.611484
1434,devens,middlesex,ma,42.534958,-71.611484
1434,ayer,middlesex,ma,42.534958,-71.611484
1436,baldwinville,worcester,ma,42.600122,-72.086316
1438,e templeton,worcester,ma,42.565092,-72.031569
1438,east templeton,worcester,ma,42.565092,-72.031569
1440,gardner,worcester,ma,42.589966,-71.986054
1441,westminster,worcester,ma,42.575,-71.9988
1450,groton,middlesex,ma,42.61619,-71.576808
1451,harvard,worcester,ma,42.498546,-71.581862
1452,hubbardston,worcester,ma,42.484168,-72.011197
1453,leominster,worcester,ma,42.524468,-71.772212
1460,littleton,middlesex,ma,42.537958,-71.484974
1462,lunenburg,worcester,ma,42.587142,-71.720924
1463,pepperell,middlesex,ma,42.665524,-71.599356
1464,shirley,middlesex,ma,42.579502,-71.644512
1464,shirley center,middlesex,ma,42.579502,-71.644512
1464,shirley ctr,middlesex,ma,42.579502,-71.644512
1467,still river,worcester,ma,42.48442,-71.62897
1468,templeton,worcester,ma,42.543162,-72.066854
1469,townsend,middlesex,ma,42.659557,-71.702288
1470,groton,middlesex,ma,42.6112,-71.5752
1471,groton,middlesex,ma,42.6112,-71.5752
1472,west groton,middlesex,ma,42.6006,-71.6302
1473,westminster,worcester,ma,42.559479,-71.908706
1474,townsend,middlesex,ma,42.66967,-71.743376
1474,w townsend,middlesex,ma,42.66967,-71.743376
1474,west townsend,middlesex,ma,42.66967,-71.743376
1475,winchendon,worcester,ma,42.660866,-72.048898
1501,auburn,worcester,ma,42.195675,-71.84607
1503,berlin,worcester,ma,42.384234,-71.629366
1504,blackstone,worcester,ma,42.039526,-71.530657
1505,boylston,worcester,ma,42.35397,-71.717353
1506,brookfield,worcester,ma,42.194498,-72.103822
1507,charlton,worcester,ma,42.131775,-71.973205
1508,charlton city,worcester,ma,42.1476,-71.9982
1509,charlton dpt,worcester,ma,42.1733,-71.9794
1509,charlton dept,worcester,ma,42.1733,-71.9794
1509,charlton depot,worcester,ma,42.1733,-71.9794
1510,clinton,worcester,ma,42.4132,-71.69127
1515,east brookfield,worcester,ma,42.207255,-72.048914
1515,e brookfield,worcester,ma,42.207255,-72.048914
1516,douglas,worcester,ma,42.054573,-71.754706
1516,east douglas,worcester,ma,42.054573,-71.754706
1518,fiskdale,worcester,ma,42.106473,-72.114044
1518,sturbridge,worcester,ma,42.106473,-72.114044
1519,grafton,worcester,ma,42.202961,-71.68107
1520,holden,worcester,ma,42.333798,-71.853266
1521,fiskdale,hampden,ma,42.064504,-72.168424
1521,holland,hampden,ma,42.064504,-72.168424
1522,jefferson,worcester,ma,42.376355,-71.872314
1523,lancaster,worcester,ma,42.47212,-71.667642
1524,leicester,worcester,ma,42.240144,-71.918765
1525,linwood,worcester,ma,42.0973,-71.6455
1526,manchaug,worcester,ma,42.0945,-71.7482
1527,millbury,worcester,ma,42.1908,-71.779474
1529,millville,worcester,ma,42.039469,-71.577323
1531,new braintree,worcester,ma,42.320452,-72.129492
1532,northborough,worcester,ma,42.330073,-71.635176
1534,northbridge,worcester,ma,42.136202,-71.642674
1535,n brookfield,worcester,ma,42.268925,-72.08293
1535,north brookfield,worcester,ma,42.268925,-72.08293
1536,north grafton,worcester,ma,42.224812,-71.68933
1537,north oxford,worcester,ma,42.162944,-71.891157
1538,n uxbridge,worcester,ma,42.0878,-71.6417
1538,north uxbridge,worcester,ma,42.0878,-71.6417
1540,oxford,worcester,ma,42.121482,-71.854026
1541,princeton,worcester,ma,42.456909,-71.890806
1542,rochdale,worcester,ma,42.201258,-71.910758
1543,rutland,worcester,ma,42.383117,-71.961566
1545,shrewsbury,worcester,ma,42.28678,-71.713616
1546,shrewsbury,worcester,ma,42.2959,-71.7134
1550,southbridge,worcester,ma,42.067572,-72.044007
1560,south grafton,worcester,ma,42.174762,-71.679842
1561,s lancaster,worcester,ma,42.4444,-71.6876
1561,south lancaster,worcester,ma,42.4444,-71.6876
1562,spencer,worcester,ma,42.247962,-71.990742
1564,sterling,worcester,ma,42.439322,-71.776608
1566,sturbridge,worcester,ma,42.101636,-72.079806
1568,upton,worcester,ma,42.176133,-71.604529
1569,uxbridge,worcester,ma,42.062542,-71.64365
1570,webster,worcester,ma,42.058201,-71.848067
1570,dudley hill,worcester,ma,42.058201,-71.848067
1571,dudley,worcester,ma,42.059683,-71.936768
1581,westborough,worcester,ma,42.266153,-71.60922
1583,west boylston,worcester,ma,42.359146,-71.782384
1585,west brookfield,worcester,ma,42.227596,-72.164598
1585,w brookfield,worcester,ma,42.227596,-72.164598
1586,west millbury,worcester,ma,42.1756,-71.8027
1586,millbury,worcester,ma,42.1756,-71.8027
1588,whitinsville,worcester,ma,42.125659,-71.664119
1590,wilkinsonville,worcester,ma,42.135437,-71.755846
1590,sutton,worcester,ma,42.135437,-71.755846
1590,wilkinsonvile,worcester,ma,42.135437,-71.755846
1601,worcester,worcester,ma,42.2627,-71.8028
1602,worcester,worcester,ma,42.274402,-71.847756
1603,worcester,worcester,ma,42.244677,-71.844808
1604,worcester,worcester,ma,42.249198,-71.764908
1605,worcester,worcester,ma,42.288915,-71.79578
1606,worcester,worcester,ma,42.313314,-71.796346
1607,worcester,worcester,ma,42.225438,-71.78724
1608,worcester,worcester,ma,42.258592,-71.803034
1609,worcester,worcester,ma,42.28755,-71.83067
1610,worcester,worcester,ma,42.242612,-71.810432
1611,cherry valley,worcester,ma,42.235219,-71.876892
1612,paxton,worcester,ma,42.315184,-71.934535
1612,worcester,worcester,ma,42.315184,-71.934535
1613,worcester,worcester,ma,42.2627,-71.8028
1614,worcester,worcester,ma,42.2627,-71.8028
1615,worcester,worcester,ma,42.2627,-71.8028
1653,worcester,worcester,ma,42.2627,-71.8028
1655,worcester,worcester,ma,42.2627,-71.8028
1701,framingham,middlesex,ma,42.323168,-71.435188
1702,framingham,middlesex,ma,42.278748,-71.443616
1703,framingham,middlesex,ma,42.3026,-71.4236
1704,framingham,middlesex,ma,42.3026,-71.4236
1705,framingham,middlesex,ma,42.3026,-71.4236
1718,acton,middlesex,ma,42.519469,-71.428982
1719,boxborough,middlesex,ma,42.491359,-71.517726
1719,boxboro,middlesex,ma,42.491359,-71.517726
1719,acton,middlesex,ma,42.491359,-71.517726
1720,acton,middlesex,ma,42.484174,-71.439501
1721,ashland,middlesex,ma,42.25939,-71.468254
1730,bedford,middlesex,ma,42.49988,-71.275308
1731,bedford,middlesex,ma,42.463052,-71.285098
1731,hanscom afb,middlesex,ma,42.463052,-71.285098
1740,bolton,worcester,ma,42.438164,-71.60489
1741,carlisle,middlesex,ma,42.53213,-71.352461
1742,concord,middlesex,ma,42.460612,-71.364231
1745,fayville,worcester,ma,42.291501,-71.500158
1745,southborough,worcester,ma,42.291501,-71.500158
1746,holliston,middlesex,ma,42.197434,-71.441187
1747,hopedale,worcester,ma,42.127,-71.535778
1748,hopkinton,middlesex,ma,42.226648,-71.531466
1749,hudson,middlesex,ma,42.389119,-71.538802
1752,marlborough,middlesex,ma,42.345921,-71.550943
1754,maynard,middlesex,ma,42.428493,-71.45771
1756,mendon,worcester,ma,42.103812,-71.544618
1757,milford,worcester,ma,42.153808,-71.52576
1760,natick,middlesex,ma,42.28715,-71.352332
1770,sherborn,middlesex,ma,42.231344,-71.374631
1772,southborough,worcester,ma,42.296533,-71.535209
1773,lincoln,middlesex,ma,42.427159,-71.312442
1775,stow,middlesex,ma,42.429867,-71.503594
1776,sudbury,middlesex,ma,42.388828,-71.42304
1778,wayland,middlesex,ma,42.36119,-71.362933
1784,woodville,middlesex,ma,42.2376,-71.5627
1801,woburn,middlesex,ma,42.489526,-71.158884
1803,burlington,middlesex,ma,42.505988,-71.204536
1805,burlington,middlesex,ma,42.5044,-71.1964
1810,andover,essex,ma,42.649578,-71.166028
1812,andover,essex,ma,42.6585,-71.1377
1813,woburn,middlesex,ma,42.4793,-71.1526
1815,woburn,middlesex,ma,42.4793,-71.1526
1821,billerica,middlesex,ma,42.549069,-71.25588
1822,billerica,middlesex,ma,42.5586,-71.2695
1824,s chelmsford,middlesex,ma,42.587771,-71.35176
1824,chelmsford,middlesex,ma,42.587771,-71.35176
1824,kates corner,middlesex,ma,42.587771,-71.35176
1826,dracut,middlesex,ma,42.69256,-71.309028
1827,dunstable,middlesex,ma,42.673198,-71.502242
1830,haverhill,essex,ma,42.79519,-71.05563
1831,haverhill,essex,ma,42.7763,-71.0778
1832,haverhill,essex,ma,42.791176,-71.129295
1833,georgetown,essex,ma,42.723822,-70.97822
1833,haverhill,essex,ma,42.723822,-70.97822
1834,groveland,essex,ma,42.75092,-71.009929
1835,haverhill,essex,ma,42.753546,-71.086654
1835,bradford,essex,ma,42.753546,-71.086654
1835,ward hill,essex,ma,42.753546,-71.086654
1840,lawrence,essex,ma,42.70594,-71.159753
1841,lawrence,essex,ma,42.708653,-71.163282
1842,lawrence,essex,ma,42.7069,-71.166
1843,lawrence,essex,ma,42.691573,-71.161102
1844,methuen,essex,ma,42.731861,-71.18578
1845,north andover,essex,ma,42.673022,-71.088049
1850,lowell,middlesex,ma,42.655639,-71.303458
1851,lowell,middlesex,ma,42.624348,-71.339113
1852,lowell,middlesex,ma,42.628515,-71.296476
1853,lowell,middlesex,ma,42.6435,-71.3101
1854,lowell,middlesex,ma,42.649275,-71.346363
1860,merrimac,essex,ma,42.83658,-71.01155
1862,north billerica,middlesex,ma,42.568284,-71.29229
1862,n billerica,middlesex,ma,42.568284,-71.29229
1863,north chelmsford,middlesex,ma,42.631398,-71.388618
1863,n chelmsford,middlesex,ma,42.631398,-71.388618
1864,north reading,middlesex,ma,42.58049,-71.087025
1865,nutting lake,middlesex,ma,42.5381,-71.2689
1866,pinehurst,middlesex,ma,42.5304,-71.2278
1867,reading,middlesex,ma,42.533282,-71.103608
1876,tewksbury,middlesex,ma,42.611064,-71.231595
1879,tyngsboro,middlesex,ma,42.658821,-71.432972
1880,wakefield,middlesex,ma,42.501286,-71.066727
1885,west boxford,essex,ma,42.7077,-71.0658
1886,westford,middlesex,ma,42.588996,-71.441744
1887,wilmington,middlesex,ma,42.565327,-71.174652
1888,woburn,middlesex,ma,42.4806,-71.1516
1889,north reading,middlesex,ma,42.5763,-71.0788
1890,winchester,middlesex,ma,42.449942,-71.14999
1899,andover,essex,ma,42.6586,-71.1375
1901,lynn,essex,ma,42.460542,-70.94614
1902,lynn,essex,ma,42.473415,-70.942636
1903,lynn,essex,ma,42.4638,-70.9479
1904,east lynn,essex,ma,42.489185,-70.968944
1904,lynn,essex,ma,42.489185,-70.968944
1905,west lynn,essex,ma,42.475945,-70.980115
1905,lynn,essex,ma,42.475945,-70.980115
1906,saugus,essex,ma,42.467474,-71.012852
1907,swampscott,essex,ma,42.47517,-70.904971
1908,nahant,essex,ma,42.435967,-70.920912
1910,lynn,essex,ma,42.4667,-70.9503
1913,amesbury,essex,ma,42.853164,-70.951838
1915,beverly,essex,ma,42.567821,-70.85808
1921,boxford,essex,ma,42.679297,-71.029386
1922,byfield,essex,ma,42.758286,-70.917065
1922,newbury,essex,ma,42.758286,-70.917065
1923,danvers,essex,ma,42.576767,-70.951352
1929,essex,essex,ma,42.632303,-70.77843
1930,gloucester,essex,ma,42.630956,-70.683382
1931,gloucester,essex,ma,42.6159,-70.6627
1936,hamilton,essex,ma,42.6208,-70.8578
1937,hathorne,essex,ma,42.5834,-70.9859
1938,ipswich,essex,ma,42.682948,-70.847264
1940,lynnfield,essex,ma,42.538193,-71.030538
1944,manchester,essex,ma,42.57953,-70.765114
1944,manchester by the sea,essex,ma,42.57953,-70.765114
1945,marblehead,essex,ma,42.500168,-70.864898
1949,middleton,essex,ma,42.602573,-71.013696
1950,newburyport,essex,ma,42.81423,-70.874524
1951,newburyport,essex,ma,42.755307,-70.849598
1951,newbury,essex,ma,42.755307,-70.849598
1952,salisbury,essex,ma,42.850347,-70.863299
1952,salisbury bch,essex,ma,42.850347,-70.863299
1952,salisbury beach,essex,ma,42.850347,-70.863299
1960,peabody,essex,ma,42.532576,-70.97366
1961,peabody,essex,ma,42.5278,-70.9294
1965,prides xing,essex,ma,42.559,-70.8253
1965,prides crossing,essex,ma,42.559,-70.8253
1966,rockport,essex,ma,42.66054,-70.616169
1969,rowley,essex,ma,42.717874,-70.895394
1970,salem,essex,ma,42.514708,-70.907522
1971,salem,essex,ma,42.5195,-70.8972
1982,s hamilton,essex,ma,42.626832,-70.860216
1982,south hamilton,essex,ma,42.626832,-70.860216
1983,topsfield,essex,ma,42.635633,-70.944318
1984,wenham,essex,ma,42.601974,-70.872882
1985,west newbury,essex,ma,42.791528,-70.968849
2018,accord,plymouth,ma,42.1747,-70.8845
2018,hingham,plymouth,ma,42.1747,-70.8845
2019,bellingham,norfolk,ma,42.076452,-71.472236
2020,brant rock,plymouth,ma,42.0863,-70.6417
2021,canton,norfolk,ma,42.18271,-71.122104
2025,cohasset,norfolk,ma,42.232751,-70.815908
2026,dedham,norfolk,ma,42.244598,-71.181152
2027,dedham,norfolk,ma,42.2472,-71.1664
2030,dover,norfolk,ma,42.241727,-71.287522
2032,east walpole,norfolk,ma,42.154132,-71.215034
2035,foxborough,norfolk,ma,42.060874,-71.235452
2035,foxboro,norfolk,ma,42.060874,-71.235452
2038,franklin,norfolk,ma,42.087009,-71.407757
2040,scituate,plymouth,ma,42.1792,-70.7501
2040,greenbush,plymouth,ma,42.1792,-70.7501
2041,green harbor,plymouth,ma,42.0775,-70.65
2043,hingham,plymouth,ma,42.215769,-70.879249
2044,hingham,plymouth,ma,42.2039,-70.8789
2045,hull,plymouth,ma,42.284262,-70.888204
2047,humarock,plymouth,ma,42.1361,-70.6908
2048,mansfield,bristol,ma,42.016984,-71.221894
2050,marshfield,plymouth,ma,42.111083,-70.713148
2051,marshfld hls,plymouth,ma,42.1459,-70.7405
2051,marshfield hills,plymouth,ma,42.1459,-70.7405
2052,medfield,norfolk,ma,42.182364,-71.310053
2053,medway,norfolk,ma,42.152946,-71.427022
2054,millis,norfolk,ma,42.16616,-71.361252
2055,scituate,plymouth,ma,42.2403,-70.7626
2055,minot,plymouth,ma,42.2403,-70.7626
2056,norfolk,norfolk,ma,42.116503,-71.331134
2059,n marshfield,plymouth,ma,42.1434,-70.7705
2059,north marshfield,plymouth,ma,42.1434,-70.7705
2060,n scituate,plymouth,ma,42.2187,-70.7861
2060,scituate,plymouth,ma,42.2187,-70.7861
2060,north scituate,plymouth,ma,42.2187,-70.7861
2061,norwell,plymouth,ma,42.151425,-70.821397
2062,norwood,norfolk,ma,42.181894,-71.19668
2065,ocean bluff,plymouth,ma,42.0918,-70.7061
2065,marshfield,plymouth,ma,42.0918,-70.7061
2066,scituate,plymouth,ma,42.207539,-70.775681
2067,sharon,norfolk,ma,42.111125,-71.185819
2070,sheldonville,norfolk,ma,42.0283,-71.3976
2071,south walpole,norfolk,ma,42.101912,-71.272054
2072,stoughton,norfolk,ma,42.11855,-71.103346
2081,walpole,norfolk,ma,42.150832,-71.258996
2090,westwood,norfolk,ma,42.221173,-71.199439
2093,wrentham,norfolk,ma,42.055321,-71.371588
2108,boston,suffolk,ma,42.357322,-71.0645
2109,boston,suffolk,ma,42.363244,-71.053774
2110,boston,suffolk,ma,42.358162,-71.054065
2111,boston,suffolk,ma,42.350274,-71.058768
2112,boston,suffolk,ma,42.3586,-71.0605
2113,boston,suffolk,ma,42.365161,-71.055472
2114,boston,suffolk,ma,42.36225,-71.067337
2115,boston,suffolk,ma,42.342124,-71.096672
2116,boston,suffolk,ma,42.350571,-71.076869
2117,boston,suffolk,ma,42.3586,-71.0605
2118,boston,suffolk,ma,42.337039,-71.072034
2118,roxbury,suffolk,ma,42.337039,-71.072034
2119,roxbury,suffolk,ma,42.323038,-71.084684
2119,boston,suffolk,ma,42.323038,-71.084684
2120,mission hill,suffolk,ma,42.332608,-71.09653
2120,roxbury xing,suffolk,ma,42.332608,-71.09653
2120,boston,suffolk,ma,42.332608,-71.09653
2120,roxbury,suffolk,ma,42.332608,-71.09653
2120,roxbury crossing,suffolk,ma,42.332608,-71.09653
2121,dorchester,suffolk,ma,42.307319,-71.085935
2121,boston,suffolk,ma,42.307319,-71.085935
2121,grove hall,suffolk,ma,42.307319,-71.085935
2122,dorchester,suffolk,ma,42.296954,-71.054622
2122,boston,suffolk,ma,42.296954,-71.054622
2123,boston,suffolk,ma,42.3586,-71.0605
2124,boston,suffolk,ma,42.28491,-71.069753
2124,dorchester center,suffolk,ma,42.28491,-71.069753
2124,dorchester,suffolk,ma,42.28491,-71.069753
2124,dorchestr ctr,suffolk,ma,42.28491,-71.069753
2125,uphams corner,suffolk,ma,42.315824,-71.055735
2125,boston,suffolk,ma,42.315824,-71.055735
2125,dorchester,suffolk,ma,42.315824,-71.055735
2126,boston,suffolk,ma,42.275794,-71.090714
2126,mattapan,suffolk,ma,42.275794,-71.090714
2127,south boston,suffolk,ma,42.336076,-71.035834
2127,boston,suffolk,ma,42.336076,-71.035834
2128,boston,suffolk,ma,42.373323,-71.015505
2128,east boston,suffolk,ma,42.373323,-71.015505
2129,charlestown,suffolk,ma,42.38168,-71.064086
2129,boston,suffolk,ma,42.38168,-71.064086
2130,jamaica plain,suffolk,ma,42.310509,-71.117394
2130,boston,suffolk,ma,42.310509,-71.117394
2131,roslindale,suffolk,ma,42.283528,-71.121772
2131,boston,suffolk,ma,42.283528,-71.121772
2132,west roxbury,suffolk,ma,42.279314,-71.165852
2132,boston,suffolk,ma,42.279314,-71.165852
2133,boston,suffolk,ma,42.3572,-71.0796
2134,boston,suffolk,ma,42.357649,-71.128887
2134,allston,suffolk,ma,42.357649,-71.128887
2135,brighton,suffolk,ma,42.348778,-71.155071
2135,boston,suffolk,ma,42.348778,-71.155071
2136,boston,suffolk,ma,42.252918,-71.129278
2136,hyde park,suffolk,ma,42.252918,-71.129278
2136,readville,suffolk,ma,42.252918,-71.129278
2137,readville,suffolk,ma,42.3586,-71.0605
2137,hyde park,suffolk,ma,42.3586,-71.0605
2137,boston,suffolk,ma,42.3586,-71.0605
2138,cambridge,middlesex,ma,42.380054,-71.132952
2139,cambridge,middlesex,ma,42.364397,-71.101196
2140,north cambridge,middlesex,ma,42.393254,-71.13454
2140,n cambridge,middlesex,ma,42.393254,-71.13454
2140,cambridge,middlesex,ma,42.393254,-71.13454
2141,cambridge,middlesex,ma,42.370159,-71.080748
2141,e cambridge,middlesex,ma,42.370159,-71.080748
2141,east cambridge,middlesex,ma,42.370159,-71.080748
2142,cambridge,middlesex,ma,42.36249,-71.080492
2143,somerville,middlesex,ma,42.382964,-71.095574
2144,w somerville,middlesex,ma,42.402311,-71.12037
2144,west somerville,middlesex,ma,42.402311,-71.12037
2144,somerville,middlesex,ma,42.402311,-71.12037
2145,winter hill,middlesex,ma,42.391354,-71.092668
2145,somerville,middlesex,ma,42.391354,-71.092668
2148,malden,middlesex,ma,42.43279,-71.054417
2149,everett,middlesex,ma,42.405952,-71.051671
2150,chelsea,suffolk,ma,42.39959,-71.03156
2151,revere,suffolk,ma,42.419035,-70.996328
2152,winthrop,suffolk,ma,42.367752,-70.97545
2153,tufts university,middlesex,ma,42.403614,-71.120162
2153,tufts univ,middlesex,ma,42.403614,-71.120162
2153,medford,middlesex,ma,42.403614,-71.120162
2155,medford,middlesex,ma,42.424993,-71.111104
2156,west medford,middlesex,ma,42.4293,-71.1285
2163,boston,suffolk,ma,42.368405,-71.127172
2163,cambridge,suffolk,ma,42.368405,-71.127172
2169,quincy,norfolk,ma,42.242921,-71.009972
2170,wollaston,norfolk,ma,42.267422,-71.016594
2170,quincy,norfolk,ma,42.267422,-71.016594
2171,squantum,norfolk,ma,42.296117,-70.999722
2171,north quincy,norfolk,ma,42.296117,-70.999722
2171,quincy,norfolk,ma,42.296117,-70.999722
2176,melrose,middlesex,ma,42.457592,-71.054207
2180,stoneham,middlesex,ma,42.473096,-71.09709
2184,braintree,norfolk,ma,42.203355,-71.004824
2185,braintree,norfolk,ma,42.2101,-70.9902
2186,milton,norfolk,ma,42.239587,-71.081122
2187,milton village,norfolk,ma,42.2795,-71.0782
2187,milton vlg,norfolk,ma,42.2795,-71.0782
2188,weymouth,norfolk,ma,42.207039,-70.953848
2189,weymouth,norfolk,ma,42.21447,-70.933358
2189,east weymouth,norfolk,ma,42.21447,-70.933358
2190,weymouth,norfolk,ma,42.165033,-70.950188
2190,s weymouth,norfolk,ma,42.165033,-70.950188
2190,south weymouth,norfolk,ma,42.165033,-70.950188
2191,n weymouth,norfolk,ma,42.246844,-70.943521
2191,north weymouth,norfolk,ma,42.246844,-70.943521
2191,weymouth,norfolk,ma,42.246844,-70.943521
2196,boston,suffolk,ma,42.3586,-71.0603
2199,boston,suffolk,ma,42.347435,-71.082265
2201,boston,suffolk,ma,42.3586,-71.0603
2203,boston,suffolk,ma,42.3612,-71.0603
2204,boston,suffolk,ma,42.3586,-71.0603
2205,boston,suffolk,ma,42.3512,-71.0536
2206,boston,suffolk,ma,42.3586,-71.0603
2210,boston,suffolk,ma,42.346571,-71.039563
2211,boston,suffolk,ma,42.3586,-71.0603
2212,boston,suffolk,ma,42.3362,-71.0176
2215,boston,suffolk,ma,42.345189,-71.106132
2217,boston,suffolk,ma,42.3586,-71.0603
2222,boston,suffolk,ma,42.366297,-71.062845
2238,harvard sq,middlesex,ma,42.3669,-71.1002
2238,harvard square,middlesex,ma,42.3669,-71.1002
2238,cambridge,middlesex,ma,42.3669,-71.1002
2241,boston,suffolk,ma,42.3586,-71.0603
2269,quincy,norfolk,ma,42.2528,-71.0025
2283,boston,suffolk,ma,42.3586,-71.0603
2284,boston,suffolk,ma,42.3586,-71.0603
2293,boston,suffolk,ma,42.3586,-71.0603
2297,boston,suffolk,ma,42.3586,-71.0603
2298,boston,suffolk,ma,42.34,-71.05
2301,brockton,plymouth,ma,42.07848,-71.038417
2302,brockton,plymouth,ma,42.085916,-71.000073
2303,brockton,plymouth,ma,42.0834,-71.0188
2304,brockton,plymouth,ma,42.0834,-71.0188
2305,brockton,plymouth,ma,42.0834,-71.0188
2322,avon,norfolk,ma,42.128841,-71.046906
2324,bridgewater,norfolk,ma,41.970648,-70.973158
2324,bridgewater,plymouth,ma,41.970648,-70.973158
2325,bridgewater,plymouth,ma,41.99013,-70.9631
2327,bryantville,plymouth,ma,42.0425,-70.8459
2330,carver,plymouth,ma,41.874056,-70.764752
2331,duxbury,plymouth,ma,42.0414,-70.6726
2332,duxbury,plymouth,ma,42.045707,-70.690549
2333,east bridgewater,plymouth,ma,42.033736,-70.942548
2333,e bridgewater,plymouth,ma,42.033736,-70.942548
2333,e bridgewtr,plymouth,ma,42.033736,-70.942548
2334,easton,bristol,ma,42.0275,-71.1279
2337,elmwood,plymouth,ma,42.0154,-70.9646
2338,halifax,plymouth,ma,41.987159,-70.859338
2339,hanover,plymouth,ma,42.122752,-70.851774
2339,hanover,norfolk,ma,42.122752,-70.851774
2341,hanson,plymouth,ma,42.055769,-70.87398
2343,holbrook,norfolk,ma,42.143757,-71.003207
2344,middleborough,plymouth,ma,41.8934,-70.9117
2344,middleboro,plymouth,ma,41.8934,-70.9117
2345,manomet,plymouth,ma,41.8975,-70.5426
2346,middleboro,plymouth,ma,41.882196,-70.879797
2347,lakeville,plymouth,ma,41.84096,-70.956121
2348,lakeville,plymouth,ma,41.8934,-70.9117
2348,middleborough,plymouth,ma,41.8934,-70.9117
2348,middleboro,plymouth,ma,41.8934,-70.9117
2349,middleboro,plymouth,ma,41.8934,-70.9117
2349,middleborough,plymouth,ma,41.8934,-70.9117
2350,monponsett,plymouth,ma,42.017,-70.8499
2351,abington,plymouth,ma,42.119377,-70.959396
2355,north carver,plymouth,ma,41.9272,-70.7516
2356,north easton,bristol,ma,42.054402,-71.121102
2357,stonehill clg,bristol,ma,42.059326,-71.07937
2357,north easton,bristol,ma,42.059326,-71.07937
2358,n pembroke,plymouth,ma,42.1024,-70.7739
2358,north pembroke,plymouth,ma,42.1024,-70.7739
2359,pembroke,plymouth,ma,42.064865,-70.798555
2360,plymouth,plymouth,ma,41.873369,-70.639662
2361,plymouth,plymouth,ma,41.9583,-70.6675
2362,plymouth,plymouth,ma,41.9583,-70.6675
2364,kingston,plymouth,ma,41.978084,-70.746086
2366,south carver,plymouth,ma,41.85384,-70.655726
2367,plympton,plymouth,ma,41.971449,-70.810876
2368,randolph,norfolk,ma,42.170254,-71.061724
2370,rockland,plymouth,ma,42.128818,-70.912354
2375,south easton,bristol,ma,42.025622,-71.108428
2379,w bridgewater,plymouth,ma,42.017525,-71.023459
2379,west bridgewater,plymouth,ma,42.017525,-71.023459
2381,wht horse bch,plymouth,ma,41.9317,-70.56
2381,white horse beach,plymouth,ma,41.9317,-70.56
2382,whitman,plymouth,ma,42.081178,-70.939436
2420,lexington,middlesex,ma,42.457706,-71.216824
2421,lexington,middlesex,ma,42.443014,-71.234851
2445,brookline,norfolk,ma,42.322072,-71.13129
2446,brookline,norfolk,ma,42.343335,-71.122762
2447,brookline village,norfolk,ma,42.3336,-71.1237
2447,brookline vlg,norfolk,ma,42.3336,-71.1237
2451,north waltham,middlesex,ma,42.397322,-71.259369
2451,waltham,middlesex,ma,42.397322,-71.259369
2452,waltham,middlesex,ma,42.394783,-71.216868
2452,north waltham,middlesex,ma,42.394783,-71.216868
2453,south waltham,middlesex,ma,42.369984,-71.232748
2453,waltham,middlesex,ma,42.369984,-71.232748
2454,waltham,middlesex,ma,42.3767,-71.2363
2455,north waltham,middlesex,ma,42.3586,-71.0605
2456,new town,middlesex,ma,42.3601,-71.1308
2457,babson park,norfolk,ma,42.2988,-71.2601
2458,newtonville,middlesex,ma,42.35342,-71.183562
2458,newton,middlesex,ma,42.35342,-71.183562
2459,newton,middlesex,ma,42.312221,-71.1947
2459,newton centre,middlesex,ma,42.312221,-71.1947
2459,newton center,middlesex,ma,42.312221,-71.1947
2460,newtonville,middlesex,ma,42.352287,-71.207258
2460,newton,middlesex,ma,42.352287,-71.207258
2461,newton highlands,middlesex,ma,42.314007,-71.20848
2461,newton hlds,middlesex,ma,42.314007,-71.20848
2461,newton,middlesex,ma,42.314007,-71.20848
2462,newton,middlesex,ma,42.33117,-71.256202
2462,newton l f,middlesex,ma,42.33117,-71.256202
2462,newton lower falls,middlesex,ma,42.33117,-71.256202
2462,newtonville,middlesex,ma,42.33117,-71.256202
2464,newton u f,middlesex,ma,42.313194,-71.218719
2464,newton,middlesex,ma,42.313194,-71.218719
2464,newton upper falls,middlesex,ma,42.313194,-71.218719
2465,newton,middlesex,ma,42.350429,-71.225614
2465,west newton,middlesex,ma,42.350429,-71.225614
2466,auburndale,middlesex,ma,42.34508,-71.247189
2467,boston clg,middlesex,ma,42.318788,-71.15699
2467,boston college,norfolk,ma,42.318788,-71.15699
2467,boston clg,norfolk,ma,42.318788,-71.15699
2467,chestnut hill,middlesex,ma,42.318788,-71.15699
2467,boston clg,suffolk,ma,42.318788,-71.15699
2467,chestnut hill,suffolk,ma,42.318788,-71.15699
2467,boston college,middlesex,ma,42.318788,-71.15699
2467,chestnut hill,norfolk,ma,42.318788,-71.15699
2467,boston college,suffolk,ma,42.318788,-71.15699
2468,waban,middlesex,ma,42.326539,-71.231852
2471,watertown,middlesex,ma,42.3708,-71.1833
2472,watertown,middlesex,ma,42.372094,-71.178567
2472,east watertown,middlesex,ma,42.372094,-71.178567
2472,e watertown,middlesex,ma,42.372094,-71.178567
2474,arlington,middlesex,ma,42.417192,-71.161109
2474,east arlington,middlesex,ma,42.417192,-71.161109
2474,e arlington,middlesex,ma,42.417192,-71.161109
2475,arlington heights,middlesex,ma,42.4288,-71.1494
2475,arlington hts,middlesex,ma,42.4288,-71.1494
2476,arlington,middlesex,ma,42.415132,-71.17662
2477,watertown,middlesex,ma,42.3708,-71.1833
2478,belmont,middlesex,ma,42.3955,-71.182105
2479,waverley,middlesex,ma,42.4202,-71.2019
2481,wellesley hls,norfolk,ma,42.309348,-71.272442
2481,wellesley hills,norfolk,ma,42.309348,-71.272442
2481,wellesley,norfolk,ma,42.309348,-71.272442
2482,wellesley,norfolk,ma,42.2935,-71.299285
2492,needham,norfolk,ma,42.277716,-71.244942
2493,weston,middlesex,ma,42.357814,-71.295386
2494,needham heights,norfolk,ma,42.299724,-71.229804
2494,needham,norfolk,ma,42.299724,-71.229804
2494,needham hgts,norfolk,ma,42.299724,-71.229804
2495,newton,middlesex,ma,42.3367,-71.2094
2495,nonantum,middlesex,ma,42.3367,-71.2094
2532,bourne,plymouth,ma,41.727207,-70.587977
2532,buzzards bay,plymouth,ma,41.727207,-70.587977
2532,bourne,barnstable,ma,41.727207,-70.587977
2532,buzzards bay,barnstable,ma,41.727207,-70.587977
2534,cataumet,barnstable,ma,41.666811,-70.617634
2535,chilmark,dukes,ma,41.328156,-70.744782
2535,aquinnah,dukes,ma,41.328156,-70.744782
2535,gay head,dukes,ma,41.328156,-70.744782
2536,e falmouth,barnstable,ma,41.599718,-70.562314
2536,ea falmouth,barnstable,ma,41.599718,-70.562314
2536,east falmouth,barnstable,ma,41.599718,-70.562314
2536,teaticket,barnstable,ma,41.599718,-70.562314
2536,hatchville,barnstable,ma,41.599718,-70.562314
2536,waquoit,barnstable,ma,41.599718,-70.562314
2537,e sandwich,barnstable,ma,41.729997,-70.436664
2537,east sandwich,barnstable,ma,41.729997,-70.436664
2538,east wareham,plymouth,ma,41.77186,-70.648056
2538,e wareham,plymouth,ma,41.77186,-70.648056
2539,edgartown,dukes,ma,41.384969,-70.530625
2540,falmouth,barnstable,ma,41.578251,-70.62514
2541,falmouth,barnstable,ma,41.5516,-70.6156
2542,buzzards bay,barnstable,ma,41.659229,-70.552098
2542,otis angb,barnstable,ma,41.659229,-70.552098
2543,falmouth,barnstable,ma,41.528153,-70.663642
2543,woods hole,barnstable,ma,41.528153,-70.663642
2552,menemsha,dukes,ma,41.3648,-70.7515
2553,monument bch,barnstable,ma,41.7141,-70.6147
2553,monument beach,barnstable,ma,41.7141,-70.6147
2554,nantucket,nantucket,ma,41.315734,-70.119656
2554,nantucket,plymouth,ma,41.315734,-70.119656
2556,n falmouth,barnstable,ma,41.638244,-70.627712
2556,north falmouth,barnstable,ma,41.638244,-70.627712
2557,oak bluffs,dukes,ma,41.4451,-70.5647
2558,onset,plymouth,ma,41.747224,-70.654436
2559,pocasset,barnstable,ma,41.687945,-70.622408
2561,sagamore,barnstable,ma,41.772,-70.5366
2562,sagamore beach,barnstable,ma,41.792226,-70.518358
2562,sagamore bch,plymouth,ma,41.792226,-70.518358
2562,sagamore bch,barnstable,ma,41.792226,-70.518358
2562,sagamore beach,plymouth,ma,41.792226,-70.518358
2563,sandwich,barnstable,ma,41.71962,-70.477866
2564,nantucket,nantucket,ma,41.2623,-69.9668
2564,siasconset,nantucket,ma,41.2623,-69.9668
2568,vineyard hvn,dukes,ma,41.414904,-70.63079
2568,vineyard haven,dukes,ma,41.414904,-70.63079
2571,wareham,plymouth,ma,41.766592,-70.700716
2574,w falmouth,barnstable,ma,41.6059,-70.6459
2574,west falmouth,barnstable,ma,41.6059,-70.6459
2575,west tisbury,dukes,ma,41.396092,-70.640244
2576,west wareham,plymouth,ma,41.773512,-70.76777
2584,nantucket,nantucket,ma,41.2836,-70.1002
2601,hyannis,barnstable,ma,41.656828,-70.293756
2630,barnstable,barnstable,ma,41.69656,-70.295362
2631,brewster,barnstable,ma,41.746943,-70.069488
2632,centerville,barnstable,ma,41.657055,-70.347382
2633,chatham,barnstable,ma,41.688917,-69.979888
2634,centerville,barnstable,ma,41.6487,-70.3486
2635,cotuit,barnstable,ma,41.622297,-70.43606
2637,cummaquid,barnstable,ma,41.6991,-70.2777
2638,dennis,barnstable,ma,41.734252,-70.198173
2639,dennis port,barnstable,ma,41.670696,-70.137566
2639,dennisport,barnstable,ma,41.670696,-70.137566
2641,east dennis,barnstable,ma,41.7486,-70.1649
2642,eastham,barnstable,ma,41.837645,-69.975125
2643,east orleans,barnstable,ma,41.7966,-69.9568
2644,forestdale,barnstable,ma,41.693166,-70.517618
2645,e harwich,barnstable,ma,41.702193,-70.06288
2645,harwich,barnstable,ma,41.702193,-70.06288
2645,east harwich,barnstable,ma,41.702193,-70.06288
2646,harwich port,barnstable,ma,41.672796,-70.069212
2647,hyannis port,barnstable,ma,41.635079,-70.307345
2648,marstons mls,barnstable,ma,41.670439,-70.413412
2648,marstons mills,barnstable,ma,41.670439,-70.413412
2649,mashpee,barnstable,ma,41.617175,-70.492455
2650,north chatham,barnstable,ma,41.70339,-69.966802
2651,north eastham,barnstable,ma,41.8477,-70.0042
2652,north truro,barnstable,ma,42.043244,-70.103584
2653,orleans,barnstable,ma,41.748664,-69.974607
2655,osterville,barnstable,ma,41.635799,-70.391091
2657,provincetown,barnstable,ma,42.050907,-70.196323
2659,south chatham,barnstable,ma,41.683908,-70.022303
2660,south dennis,barnstable,ma,41.713662,-70.15542
2661,south harwich,barnstable,ma,41.676199,-70.039702
2662,south orleans,barnstable,ma,41.7567,-69.9938
2663,south wellfleet,barnstable,ma,41.9196,-69.9971
2663,s wellfleet,barnstable,ma,41.9196,-69.9971
2664,bass river,barnstable,ma,41.671128,-70.193735
2664,south yarmouth,barnstable,ma,41.671128,-70.193735
2664,s yarmouth,barnstable,ma,41.671128,-70.193735
2666,truro,barnstable,ma,41.998127,-70.040339
2667,wellfleet,barnstable,ma,41.933858,-70.018763
2668,w barnstable,barnstable,ma,41.708108,-70.345734
2668,west barnstable,barnstable,ma,41.708108,-70.345734
2669,west chatham,barnstable,ma,41.670312,-69.992893
2670,west dennis,barnstable,ma,41.660756,-70.171358
2671,west harwich,barnstable,ma,41.670829,-70.111338
2672,w hyannisport,barnstable,ma,41.635254,-70.319201
2672,west hyannisport,barnstable,ma,41.635254,-70.319201
2673,w yarmouth,barnstable,ma,41.648566,-70.24147
2673,west yarmouth,barnstable,ma,41.648566,-70.24147
2675,yarmouth port,barnstable,ma,41.707586,-70.229984
2702,assonet,bristol,ma,41.78528,-71.066659
2703,attleboro,bristol,ma,41.938267,-71.294158
2703,south attleboro,bristol,ma,41.938267,-71.294158
2703,s attleboro,bristol,ma,41.938267,-71.294158
2712,chartley,bristol,ma,41.9488,-71.2266
2713,cuttyhunk,dukes,ma,41.465688,-70.812907
2714,dartmouth,bristol,ma,41.5766,-71.0106
2715,dighton,bristol,ma,41.81692,-71.153046
2717,east freetown,bristol,ma,41.7526,-70.981486
2718,east taunton,plymouth,ma,41.867286,-71.015712
2718,east taunton,bristol,ma,41.867286,-71.015712
2719,fairhaven,bristol,ma,41.631336,-70.867055
2720,fall river,bristol,ma,41.73162,-71.109006
2721,fall river,bristol,ma,41.668285,-71.148002
2722,fall river,bristol,ma,41.7014,-71.1558
2723,fall river,bristol,ma,41.693094,-71.130534
2724,fall river,bristol,ma,41.686912,-71.180238
2725,somerset,bristol,ma,41.723498,-71.175562
2726,somerset,bristol,ma,41.757258,-71.150943
2738,marion,plymouth,ma,41.718104,-70.760418
2739,mattapoisett,plymouth,ma,41.664798,-70.810768
2740,new bedford,bristol,ma,41.632164,-70.940609
2741,new bedford,bristol,ma,41.6363,-70.9347
2742,new bedford,bristol,ma,41.6363,-70.9347
2743,new bedford,bristol,ma,41.71384,-70.899388
2743,acushnet,bristol,ma,41.71384,-70.899388
2744,new bedford,bristol,ma,41.609164,-70.915838
2745,new bedford,bristol,ma,41.712357,-70.949081
2745,acushnet,bristol,ma,41.712357,-70.949081
2746,new bedford,bristol,ma,41.66298,-70.944832
2747,dartmouth,bristol,ma,41.652628,-71.009691
2747,n dartmouth,bristol,ma,41.652628,-71.009691
2747,north dartmouth,bristol,ma,41.652628,-71.009691
2748,dartmouth,bristol,ma,41.561034,-70.981043
2748,nonquitt,bristol,ma,41.561034,-70.981043
2748,south dartmouth,bristol,ma,41.561034,-70.981043
2748,s dartmouth,bristol,ma,41.561034,-70.981043
2760,n attleboro,bristol,ma,41.965624,-71.325271
2760,north attleboro,bristol,ma,41.965624,-71.325271
2761,n attleboro,bristol,ma,41.9834,-71.3336
2761,north attleboro,bristol,ma,41.9834,-71.3336
2762,plainville,bristol,ma,42.01475,-71.333826
2762,plainville,norfolk,ma,42.01475,-71.333826
2763,attleboro fls,bristol,ma,41.972565,-71.307299
2763,north attleboro,bristol,ma,41.972565,-71.307299
2763,attleboro falls,bristol,ma,41.972565,-71.307299
2763,n attleboro,bristol,ma,41.972565,-71.307299
2764,n dighton,bristol,ma,41.855956,-71.15512
2764,north dighton,bristol,ma,41.855956,-71.15512
2766,norton,bristol,ma,41.955916,-71.17785
2767,raynham,bristol,ma,41.938566,-71.058468
2768,raynham center,bristol,ma,41.9237,-71.0526
2768,raynham ctr,bristol,ma,41.9237,-71.0526
2769,rehoboth,bristol,ma,41.843192,-71.244624
2770,rochester,plymouth,ma,41.752693,-70.8466
2771,seekonk,bristol,ma,41.840137,-71.318813
2777,swansea,bristol,ma,41.753177,-71.2342
2779,berkley,bristol,ma,41.825889,-71.070392
2780,taunton,bristol,ma,41.909886,-71.118924
2790,westport,bristol,ma,41.611414,-71.081786
2791,westport point,bristol,ma,41.522,-71.0751
2791,westport pt,bristol,ma,41.522,-71.0751
2801,adamsville,newport,ri,41.5544,-71.1314
2802,albion,providence,ri,41.9514,-71.4551
2804,ashaway,washington,ri,41.435056,-71.762348
2806,barrington,bristol,ri,41.741936,-71.319225
2807,block island,washington,ri,41.1892,-71.578613
2807,new shoreham,washington,ri,41.1892,-71.578613
2808,bradford,washington,ri,41.410268,-71.742223
2809,bristol,bristol,ri,41.678546,-71.271001
2812,richmond,washington,ri,41.474846,-71.658556
2812,carolina,washington,ri,41.474846,-71.658556
2813,charlestown,washington,ri,41.39589,-71.662973
2814,chepachet,providence,ri,41.905258,-71.68744
2815,clayville,providence,ri,41.770702,-71.665542
2816,coventry,kent,ri,41.693331,-71.636343
2817,w greenwich,kent,ri,41.629228,-71.665956
2817,west greenwich,kent,ri,41.629228,-71.665956
2818,east greenwich,kent,ri,41.643752,-71.477766
2818,e greenwich,kent,ri,41.643752,-71.477766
2822,exeter,washington,ri,41.55318,-71.652698
2822,escoheag,washington,ri,41.55318,-71.652698
2823,fiskeville,providence,ri,41.7345,-71.5488
2824,forestdale,providence,ri,41.9458,-71.7004
2825,foster,providence,ri,41.790296,-71.694827
2826,glendale,providence,ri,41.9762,-71.6332
2827,greene,kent,ri,41.691646,-71.727178
2827,coventry,kent,ri,41.691646,-71.727178
2828,greenville,providence,ri,41.881356,-71.553282
2829,harmony,providence,ri,41.8875,-71.5975
2830,burrillville,providence,ri,41.972358,-71.64741
2830,harrisville,providence,ri,41.972358,-71.64741
2831,hope,providence,ri,41.750858,-71.588708
2832,richmond,washington,ri,41.501408,-71.728853
2832,hope valley,washington,ri,41.501408,-71.728853
2833,hopkinton,washington,ri,41.479449,-71.775204
2835,jamestown,newport,ri,41.511087,-71.371733
2836,richmond,washington,ri,41.44828,-71.621769
2836,kenyon,washington,ri,41.44828,-71.621769
2837,little compton,newport,ri,41.50857,-71.164533
2837,l compton,newport,ri,41.50857,-71.164533
2838,manville,providence,ri,41.965252,-71.471228
2839,mapleville,providence,ri,41.942189,-71.635123
2840,newport,newport,ri,41.485043,-71.32447
2841,newport,newport,ri,41.528484,-71.316242
2842,middletown,newport,ri,41.517342,-71.271916
2852,n kingstown,washington,ri,41.58805,-71.46202
2852,north kingstown,washington,ri,41.58805,-71.46202
2857,n scituate,providence,ri,41.823378,-71.643826
2857,scituate,providence,ri,41.823378,-71.643826
2857,north scituate,providence,ri,41.823378,-71.643826
2858,oakland,providence,ri,41.964108,-71.653373
2859,pascoag,providence,ri,41.965405,-71.721682
2860,pawtucket,providence,ri,41.875246,-71.39451
2861,pawtucket,providence,ri,41.87832,-71.353902
2862,pawtucket,providence,ri,41.8787,-71.3832
2863,central falls,providence,ri,41.890756,-71.394154
2864,cumberland,providence,ri,41.956004,-71.433618
2865,lincoln,providence,ri,41.919332,-71.442985
2871,portsmouth,newport,ri,41.585358,-71.25741
2872,prudence island,bristol,ri,41.622586,-71.334696
2872,prudence isl,bristol,ri,41.622586,-71.334696
2873,rockville,washington,ri,41.5094,-71.7843
2874,saunderstown,washington,ri,41.518623,-71.466928
2875,shannock,washington,ri,41.455855,-71.638788
2875,richmond,washington,ri,41.455855,-71.638788
2876,slatersville,providence,ri,42.0033,-71.5855
2877,slocum,washington,ri,41.538082,-71.532386
2878,tiverton,newport,ri,41.609222,-71.174456
2879,s kingstown,washington,ri,41.42765,-71.536358
2879,narragansett,washington,ri,41.42765,-71.536358
2879,peace dale,washington,ri,41.42765,-71.536358
2879,wakefield,washington,ri,41.42765,-71.536358
2879,south kingstown,washington,ri,41.42765,-71.536358
2880,wakefield,washington,ri,41.4374,-71.5016
2881,kingston,washington,ri,41.480326,-71.518988
2882,point judith,washington,ri,41.426821,-71.46619
2882,narragansett,washington,ri,41.426821,-71.46619
2883,s kingstown,washington,ri,41.4529,-71.499
2883,south kingstown,washington,ri,41.4529,-71.499
2883,peace dale,washington,ri,41.4529,-71.499
2885,warren,bristol,ri,41.729952,-71.25819
2886,warwick,kent,ri,41.705329,-71.460974
2887,warwick,kent,ri,41.6918,-71.3795
2888,warwick,kent,ri,41.74862,-71.411632
2889,warwick,kent,ri,41.70121,-71.392476
2891,westerly,washington,ri,41.361477,-71.802414
2892,west kingston,washington,ri,41.51033,-71.59057
2892,richmond,washington,ri,41.51033,-71.59057
2893,west warwick,kent,ri,41.69727,-71.509664
2894,wood river junction,washington,ri,41.462121,-71.701692
2894,wood river jt,washington,ri,41.462121,-71.701692
2895,woonsocket,providence,ri,41.997922,-71.498851
2896,north smithfield,providence,ri,41.974748,-71.545054
2896,n smithfield,providence,ri,41.974748,-71.545054
2898,richmond,washington,ri,41.522184,-71.66979
2898,wyoming,washington,ri,41.522184,-71.66979
2901,providence,providence,ri,41.8238,-71.4133
2902,providence,providence,ri,41.8238,-71.4133
2903,providence,providence,ri,41.818167,-71.409728
2904,providence,providence,ri,41.854638,-71.437492
2904,n providence,providence,ri,41.854638,-71.437492
2904,north providence,providence,ri,41.854638,-71.437492
2905,cranston,providence,ri,41.786946,-71.399192
2905,providence,providence,ri,41.786946,-71.399192
2906,providence,providence,ri,41.83815,-71.393139
2907,cranston,providence,ri,41.795126,-71.424764
2907,providence,providence,ri,41.795126,-71.424764
2908,providence,providence,ri,41.839296,-71.438804
2908,north providence,providence,ri,41.839296,-71.438804
2908,n providence,providence,ri,41.839296,-71.438804
2909,providence,providence,ri,41.822232,-71.448292
2910,cranston,providence,ri,41.776088,-71.434314
2910,providence,providence,ri,41.776088,-71.434314
2911,n providence,providence,ri,41.853544,-71.472467
2911,providence,providence,ri,41.853544,-71.472467
2911,north providence,providence,ri,41.853544,-71.472467
2912,providence,providence,ri,41.826254,-71.402502
2914,east providence,providence,ri,41.811429,-71.363076
2914,e providence,providence,ri,41.811429,-71.363076
2915,riverside,providence,ri,41.776856,-71.350262
2916,rumford,providence,ri,41.842966,-71.355321
2917,smithfield,providence,ri,41.903624,-71.528881
2918,providence,providence,ri,41.844266,-71.434916
2919,providence,providence,ri,41.82785,-71.518132
2919,johnston,providence,ri,41.82785,-71.518132
2920,cranston,providence,ri,41.768472,-71.46846
2921,cranston,providence,ri,41.761729,-71.517696
2940,providence,providence,ri,41.8238,-71.4133
3031,amherst,hillsborough,nh,42.869612,-71.611033
3032,auburn,rockingham,nh,42.988876,-71.345832
3033,brookline,hillsborough,nh,42.749144,-71.673254
3034,candia,rockingham,nh,43.070868,-71.312028
3036,chester,rockingham,nh,42.970678,-71.239531
3037,deerfield,rockingham,nh,43.147942,-71.248659
3038,derry,rockingham,nh,42.890934,-71.276314
3038,londonderry,rockingham,nh,42.890934,-71.276314
3040,east candia,rockingham,nh,43.0484,-71.2493
3041,east derry,rockingham,nh,42.8946,-71.2917
3042,epping,rockingham,nh,43.048367,-71.080035
3043,francestown,hillsborough,nh,42.995706,-71.816523
3044,fremont,rockingham,nh,42.990024,-71.129684
3045,goffstown,hillsborough,nh,43.020926,-71.570426
3046,dunbarton,merrimack,nh,43.106693,-71.589231
3047,greenfield,hillsborough,nh,42.941928,-71.874975
3048,mason,hillsborough,nh,42.751118,-71.761631
3048,greenville,hillsborough,nh,42.751118,-71.761631
3049,hollis,hillsborough,nh,42.752872,-71.583438
3051,hudson,hillsborough,nh,42.761768,-71.412573
3052,litchfield,hillsborough,nh,42.850204,-71.454862
3053,londonderry,rockingham,nh,42.873066,-71.390857
3054,merrimack,hillsborough,nh,42.851797,-71.514782
3055,milford,hillsborough,nh,42.819477,-71.667999
3057,mont vernon,hillsborough,nh,42.899185,-71.688248
3060,nashua,hillsborough,nh,42.734521,-71.462396
3061,nashua,hillsborough,nh,42.7656,-71.4682
3062,nashua,hillsborough,nh,42.730416,-71.494756
3063,nashua,hillsborough,nh,42.771339,-71.52696
3064,nashua,hillsborough,nh,42.782582,-71.472035
3070,new boston,hillsborough,nh,42.975939,-71.681414
3071,new ipswich,hillsborough,nh,42.751572,-71.870917
3073,north salem,rockingham,nh,42.8368,-71.2213
3076,pelham,hillsborough,nh,42.741088,-71.316056
3077,raymond,rockingham,nh,43.032011,-71.196046
3079,salem,rockingham,nh,42.794954,-71.225568
3082,lyndeborough,hillsborough,nh,42.904431,-71.777397
3084,temple,hillsborough,nh,42.83516,-71.86247
3086,wilton,hillsborough,nh,42.829678,-71.7757
3087,windham,rockingham,nh,42.805495,-71.301507
3101,manchester,hillsborough,nh,42.988367,-71.465548
3102,manchester,hillsborough,nh,43.007972,-71.494555
3103,manchester,belknap,nh,42.940893,-71.444068
3103,manchester,hillsborough,nh,42.940893,-71.444068
3103,manchester,rockingham,nh,42.940893,-71.444068
3104,manchester,merrimack,nh,43.015401,-71.436151
3104,manchester,hillsborough,nh,43.015401,-71.436151
3104,manchester,rockingham,nh,43.015401,-71.436151
3105,manchester,hillsborough,nh,42.9956,-71.4556
3106,hooksett,merrimack,nh,43.065957,-71.4372
3106,manchester,merrimack,nh,43.065957,-71.4372
3108,manchester,hillsborough,nh,42.9956,-71.4556
3109,manchester,hillsborough,nh,42.969391,-71.404463
3110,bedford,hillsborough,nh,42.939248,-71.534653
3111,manchester,hillsborough,nh,42.9956,-71.4556
3215,waterville valley,grafton,nh,43.946288,-71.465305
3215,watervl vly,grafton,nh,43.946288,-71.465305
3216,andover,merrimack,nh,43.446677,-71.796082
3217,ashland,grafton,nh,43.724892,-71.613234
3218,barnstead,belknap,nh,43.31192,-71.248688
3220,belmont,belknap,nh,43.463234,-71.470834
3220,belmont,merrimack,nh,43.463234,-71.470834
3221,bradford,merrimack,nh,43.23641,-71.960202
3222,alexandria,grafton,nh,43.61801,-71.780073
3222,bristol,grafton,nh,43.61801,-71.780073
3223,campton,grafton,nh,43.97417,-71.580686
3223,ellsworth,grafton,nh,43.97417,-71.580686
3223,thornton,grafton,nh,43.97417,-71.580686
3224,canterbury,merrimack,nh,43.354281,-71.552026
3225,ctr barnstead,belknap,nh,43.359208,-71.23505
3225,center barnstead,belknap,nh,43.359208,-71.23505
3226,center harbor,belknap,nh,43.707722,-71.494429
3227,ctr sandwich,carroll,nh,43.834294,-71.447688
3227,center sandwich,carroll,nh,43.834294,-71.447688
3227,sandwich,carroll,nh,43.834294,-71.447688
3229,contoocook,merrimack,nh,43.199734,-71.691493
3229,hopkinton,merrimack,nh,43.199734,-71.691493
3230,danbury,merrimack,nh,43.532163,-71.85164
3231,east andover,merrimack,nh,43.4783,-71.7646
3233,elkins,merrimack,nh,43.440729,-71.952829
3234,epsom,merrimack,nh,43.216107,-71.341322
3235,franklin,merrimack,nh,43.447034,-71.675624
3237,gilmanton,belknap,nh,43.431766,-71.39466
3238,glencliff,grafton,nh,43.9825,-71.8939
3240,grafton,grafton,nh,43.576671,-71.966769
3241,east hebron,grafton,nh,43.721684,-71.833959
3241,hebron,grafton,nh,43.721684,-71.833959
3242,henniker,merrimack,nh,43.169199,-71.8212
3243,hill,merrimack,nh,43.529346,-71.755619
3244,deering,sullivan,nh,43.119581,-71.929596
3244,deering,hillsborough,nh,43.119581,-71.929596
3244,hillsboro,sullivan,nh,43.119581,-71.929596
3244,hillsboro,hillsborough,nh,43.119581,-71.929596
3244,hillsborough,hillsborough,nh,43.119581,-71.929596
3244,windsor,hillsborough,nh,43.119581,-71.929596
3244,windsor,sullivan,nh,43.119581,-71.929596
3244,hillsborough,sullivan,nh,43.119581,-71.929596
3245,holderness,grafton,nh,43.74434,-71.598562
3246,laconia,belknap,nh,43.565499,-71.481549
3247,laconia,belknap,nh,43.5478,-71.4074
3249,gilford,belknap,nh,43.56093,-71.358206
3251,lincoln,grafton,nh,44.089538,-71.58538
3252,lochmere,belknap,nh,43.4712,-71.5308
3253,meredith,belknap,nh,43.6177,-71.478163
3254,moultonborough,carroll,nh,43.705374,-71.388998
3254,moultonboro,carroll,nh,43.705374,-71.388998
3254,moultonboro,belknap,nh,43.705374,-71.388998
3254,moultonborough,belknap,nh,43.705374,-71.388998
3255,mount sunapee,merrimack,nh,43.322681,-72.006469
3255,newbury,merrimack,nh,43.322681,-72.006469
3256,new hampton,belknap,nh,43.614969,-71.619971
3257,new london,sullivan,nh,43.420142,-71.985132
3257,new london,merrimack,nh,43.420142,-71.985132
3258,chichester,merrimack,nh,43.257332,-71.401446
3259,n sandwich,carroll,nh,43.866244,-71.40106
3259,north sandwich,carroll,nh,43.866244,-71.40106
3260,north sutton,merrimack,nh,43.358426,-71.91981
3261,northwood,rockingham,nh,43.220476,-71.204444
3261,northwood,merrimack,nh,43.220476,-71.204444
3262,n woodstock,grafton,nh,44.023488,-71.73271
3262,north woodstock,grafton,nh,44.023488,-71.73271
3263,pittsfield,merrimack,nh,43.306404,-71.307016
3264,plymouth,grafton,nh,43.721736,-71.684435
3266,rumney,grafton,nh,43.811561,-71.8838
3266,dorchester,grafton,nh,43.811561,-71.8838
3268,salisbury,merrimack,nh,43.380666,-71.729532
3269,sanbornton,belknap,nh,43.537378,-71.603022
3272,south newbury,merrimack,nh,43.2956,-71.9974
3273,south sutton,merrimack,nh,43.308368,-71.916518
3275,pembroke,merrimack,nh,43.169076,-71.410731
3275,allenstown,merrimack,nh,43.169076,-71.410731
3275,suncook,merrimack,nh,43.169076,-71.410731
3276,tilton,belknap,nh,43.432029,-71.568484
3276,northfield,belknap,nh,43.432029,-71.568484
3276,tilton,merrimack,nh,43.432029,-71.568484
3276,northfield,merrimack,nh,43.432029,-71.568484
3278,warner,merrimack,nh,43.305561,-71.873398
3279,warren,grafton,nh,43.941936,-71.876458
3280,washington,sullivan,nh,43.183888,-72.093824
3281,weare,hillsborough,nh,43.08451,-71.72227
3282,wentworth,grafton,nh,43.867055,-71.949047
3284,springfield,sullivan,nh,43.490418,-72.02354
3285,thornton,grafton,nh,43.951748,-71.621646
3287,wilmot,merrimack,nh,43.44176,-71.924811
3289,winnisquam,belknap,nh,43.5015,-71.5127
3290,nottingham,rockingham,nh,43.127378,-71.120626
3291,west nottingham,rockingham,nh,43.141561,-71.129738
3291,w nottingham,rockingham,nh,43.141561,-71.129738
3293,woodstock,grafton,nh,43.9778,-71.6858
3298,tilton,belknap,nh,43.629,-71.4937
3299,tilton,belknap,nh,43.629,-71.4937
3301,concord,merrimack,nh,43.230539,-71.547977
3302,concord,merrimack,nh,43.2084,-71.5381
3303,webster,merrimack,nh,43.301354,-71.677846
3303,penacook,merrimack,nh,43.301354,-71.677846
3303,boscawen,merrimack,nh,43.301354,-71.677846
3303,concord,merrimack,nh,43.301354,-71.677846
3304,bow,merrimack,nh,43.12911,-71.542444
3305,concord,merrimack,nh,43.2084,-71.5381
3307,loudon,merrimack,nh,43.321454,-71.441464
3431,keene,cheshire,nh,42.976078,-72.276523
3431,roxbury,cheshire,nh,42.976078,-72.276523
3431,north swanzey,cheshire,nh,42.976078,-72.276523
3431,surry,cheshire,nh,42.976078,-72.276523
3435,keene,cheshire,nh,42.9337,-72.2794
3440,antrim,hillsborough,nh,43.060054,-71.983578
3441,ashuelot,cheshire,nh,42.796992,-72.435504
3442,bennington,hillsborough,nh,43.018146,-71.90897
3443,chesterfield,cheshire,nh,42.889321,-72.451866
3444,dublin,cheshire,nh,42.893094,-72.071884
3445,sullivan,cheshire,nh,43.011137,-72.217028
3446,swanzey,cheshire,nh,42.854928,-72.289486
3447,fitzwilliam,cheshire,nh,42.763853,-72.138326
3448,gilsum,cheshire,nh,43.033614,-72.248706
3449,hancock,hillsborough,nh,42.975414,-71.996236
3450,harrisville,cheshire,nh,42.948505,-72.083544
3451,hinsdale,cheshire,nh,42.792334,-72.501135
3452,jaffrey,cheshire,nh,42.831569,-72.05867
3455,marlborough,cheshire,nh,42.908073,-72.171202
3456,marlow,cheshire,nh,43.126062,-72.174496
3457,nelson,cheshire,nh,43.006406,-72.11857
3457,munsonville,cheshire,nh,43.006406,-72.11857
3458,peterborough,hillsborough,nh,42.875234,-71.93973
3458,sharon,hillsborough,nh,42.875234,-71.93973
3461,rindge,cheshire,nh,42.753053,-71.983024
3462,spofford,cheshire,nh,42.892796,-72.403298
3464,stoddard,cheshire,nh,43.073046,-72.117453
3465,troy,cheshire,nh,42.831982,-72.189194
3466,west chesterfield,cheshire,nh,42.894234,-72.512886
3466,w chesterfld,cheshire,nh,42.894234,-72.512886
3467,westmoreland,cheshire,nh,42.973622,-72.443608
3468,w peterboro,hillsborough,nh,42.8872,-71.9856
3468,west peterborough,hillsborough,nh,42.8872,-71.9856
3469,west swanzey,cheshire,nh,42.8602,-72.3146
3470,winchester,cheshire,nh,42.785358,-72.332757
3470,richmond,cheshire,nh,42.785358,-72.332757
3561,littleton,grafton,nh,44.339116,-71.81258
3570,berlin,coos,nh,44.454995,-71.26073
3574,bethlehem,grafton,nh,44.252772,-71.603568
3574,bethlehem,coos,nh,44.252772,-71.603568
3575,bretton woods,coos,nh,44.2582,-71.4419
3576,colebrook,coos,nh,44.8964,-71.39544
3576,stewartstown,coos,nh,44.8964,-71.39544
3576,dixville,coos,nh,44.8964,-71.39544
3579,errol,coos,nh,44.781274,-71.181857
3579,errol,oxford,me,44.781274,-71.181857
3579,wntwrths lctn,coos,nh,44.781274,-71.181857
3579,wentworths location,coos,nh,44.781274,-71.181857
3579,wentworths location,oxford,me,44.781274,-71.181857
3579,wntwrths lctn,oxford,me,44.781274,-71.181857
3580,franconia,grafton,nh,44.176082,-71.671044
3580,easton,grafton,nh,44.176082,-71.671044
3581,gorham,coos,nh,44.394966,-71.131572
3581,shelburne,coos,nh,44.394966,-71.131572
3582,stark,coos,nh,44.588774,-71.439562
3582,groveton,coos,nh,44.588774,-71.439562
3582,northumberland,coos,nh,44.588774,-71.439562
3582,northumberlnd,coos,nh,44.588774,-71.439562
3583,jefferson,coos,nh,44.396893,-71.433988
3584,lancaster,coos,nh,44.500107,-71.544682
3585,lisbon,grafton,nh,44.213816,-71.890048
3585,landaff,grafton,nh,44.213816,-71.890048
3585,lyman,grafton,nh,44.213816,-71.890048
3586,sugar hill,grafton,nh,44.22007,-71.801762
3588,dummer,coos,nh,44.574055,-71.194828
3588,milan,coos,nh,44.574055,-71.194828
3589,mount washington,coos,nh,44.285464,-71.297867
3589,mt washington,coos,nh,44.285464,-71.297867
3590,north stratford,coos,nh,44.724536,-71.478154
3590,n stratford,coos,nh,44.724536,-71.478154
3590,stratford,coos,nh,44.724536,-71.478154
3592,clarksville,coos,nh,45.130172,-71.280552
3592,pittsburg,coos,nh,45.130172,-71.280552
3593,randolph,coos,nh,44.373208,-71.29162
3595,twin mountain,coos,nh,44.284763,-71.503365
3597,w stewartstwn,coos,nh,44.9955,-71.5318
3597,west stewartstown,coos,nh,44.9955,-71.5318
3598,carroll,coos,nh,44.328802,-71.571167
3598,whitefield,coos,nh,44.328802,-71.571167
3598,dalton,coos,nh,44.328802,-71.571167
3601,acworth,sullivan,nh,43.235372,-72.295949
3602,alstead,cheshire,nh,43.129196,-72.32847
3602,langdon,cheshire,nh,43.129196,-72.32847
3603,charlestown,sullivan,nh,43.247994,-72.376191
3604,drewsville,cheshire,nh,43.1281,-72.3928
3605,east lempster,sullivan,nh,43.230467,-72.241716
3605,lempster,sullivan,nh,43.230467,-72.241716
3607,south acworth,sullivan,nh,43.189457,-72.285396
3608,walpole,cheshire,nh,43.074774,-72.406308
3609,north walpole,cheshire,nh,43.140715,-72.436767
3740,bath,grafton,nh,44.176708,-71.989437
3741,orange,grafton,nh,43.673746,-72.017378
3741,canaan,grafton,nh,43.673746,-72.017378
3743,claremont,sullivan,nh,43.346392,-72.32987
3745,cornish,sullivan,nh,43.472002,-72.32827
3746,cornish flat,sullivan,nh,43.4973,-72.28
3748,enfield,sullivan,nh,43.617534,-72.114808
3748,enfield,grafton,nh,43.617534,-72.114808
3749,enfield center,grafton,nh,43.5903,-72.1117
3749,enfield ctr,grafton,nh,43.5903,-72.1117
3750,etna,grafton,nh,43.713165,-72.208081
3751,georges mills,sullivan,nh,43.443099,-72.08594
3752,goshen,sullivan,nh,43.294629,-72.112866
3753,grantham,sullivan,nh,43.507164,-72.140142
3754,guild,sullivan,nh,43.3769,-72.1388
3755,hanover,grafton,nh,43.716069,-72.197482
3756,lebanon,grafton,nh,43.7029,-72.2895
3765,haverhill,grafton,nh,44.038149,-72.05375
3766,lebanon,grafton,nh,43.63502,-72.231933
3768,lyme,grafton,nh,43.82212,-72.116288
3769,lyme center,grafton,nh,43.7995,-72.1234
3770,meriden,sullivan,nh,43.529578,-72.273968
3771,monroe,grafton,nh,44.274311,-71.998977
3773,croydon,sullivan,nh,43.374889,-72.193528
3773,newport,sullivan,nh,43.374889,-72.193528
3774,n haverhill,grafton,nh,44.087152,-71.986776
3774,north haverhill,grafton,nh,44.087152,-71.986776
3777,orford,grafton,nh,43.897671,-72.059934
3779,piermont,grafton,nh,43.972213,-72.037981
3780,pike,grafton,nh,44.034416,-71.97741
3781,plainfield,sullivan,nh,43.536563,-72.28353
3782,sunapee,sullivan,nh,43.384718,-72.087607
3784,west lebanon,grafton,nh,43.645133,-72.293325
3785,woodsville,grafton,nh,44.083606,-71.900509
3785,benton,grafton,nh,44.083606,-71.900509
3801,newington,rockingham,nh,43.067485,-70.799837
3801,portsmouth,rockingham,nh,43.067485,-70.799837
3802,portsmouth,rockingham,nh,43.0719,-70.7632
3803,portsmouth,rockingham,nh,43.0719,-70.7632
3804,portsmouth,rockingham,nh,43.0719,-70.7632
3809,alton,belknap,nh,43.473886,-71.232508
3810,alton bay,belknap,nh,43.505872,-71.274232
3811,atkinson,rockingham,nh,42.839256,-71.161078
3812,harts location,carroll,nh,44.11856,-71.282343
3812,harts lctn,carroll,nh,44.11856,-71.282343
3812,bartlett,carroll,nh,44.11856,-71.282343
3813,chatham,carroll,nh,44.056045,-71.053751
3813,center conway,oxford,me,44.056045,-71.053751
3813,chatham,oxford,me,44.056045,-71.053751
3813,center conway,carroll,nh,44.056045,-71.053751
3814,center ossipee,carroll,nh,43.771493,-71.156069
3814,ctr ossipee,carroll,nh,43.771493,-71.156069
3815,center strafford,strafford,nh,43.264863,-71.106932
3815,ctr strafford,strafford,nh,43.264863,-71.106932
3816,ctr tuftnboro,carroll,nh,43.702431,-71.257197
3816,center tuftonboro,carroll,nh,43.702431,-71.257197
3817,chocorua,carroll,nh,43.879702,-71.229114
3818,conway,carroll,nh,43.966632,-71.236342
3818,albany,carroll,nh,43.966632,-71.236342
3819,danville,rockingham,nh,42.927822,-71.121202
3820,dover,strafford,nh,43.187031,-70.89452
3821,dover,strafford,nh,43.1921,-70.8804
3822,dover,strafford,nh,43.1979,-70.8745
3823,madbury,strafford,nh,43.16891,-70.930946
3824,durham,strafford,nh,43.12217,-70.922457
3824,lee,strafford,nh,43.12217,-70.922457
3825,barrington,strafford,nh,43.210674,-71.049228
3826,e hampstead,rockingham,nh,42.886457,-71.11916
3826,east hampstead,rockingham,nh,42.886457,-71.11916
3827,south hampton,rockingham,nh,42.911426,-70.974654
3827,east kingston,rockingham,nh,42.911426,-70.974654
3830,e wakefield,carroll,nh,43.641056,-70.999979
3830,east wakefield,carroll,nh,43.641056,-70.999979
3832,eaton center,carroll,nh,43.909399,-71.046855
3833,kensington,rockingham,nh,42.961445,-70.987972
3833,brentwood,rockingham,nh,42.961445,-70.987972
3833,exeter,rockingham,nh,42.961445,-70.987972
3835,farmington,strafford,nh,43.362176,-71.074979
3836,freedom,carroll,nh,43.830852,-71.08649
3837,gilmanton iw,belknap,nh,43.418512,-71.30629
3837,gilmanton iron works,belknap,nh,43.418512,-71.30629
3838,glen,carroll,nh,44.101142,-71.181214
3839,rochester,strafford,nh,43.257062,-70.983824
3840,greenland,rockingham,nh,43.032582,-70.850056
3841,hampstead,rockingham,nh,42.882721,-71.176319
3842,hampton,rockingham,nh,42.933704,-70.842691
3843,hampton,rockingham,nh,42.9284,-70.8566
3844,hampton falls,rockingham,nh,42.931988,-70.874585
3845,intervale,carroll,nh,44.175944,-71.097862
3846,jackson,carroll,nh,44.182909,-71.203438
3847,kearsarge,carroll,nh,44.0756,-71.1182
3848,kingston,rockingham,nh,42.91035,-71.061621
3849,madison,carroll,nh,43.903793,-71.101791
3850,melvin village,carroll,nh,43.6887,-71.3049
3850,melvin vlg,carroll,nh,43.6887,-71.3049
3851,milton,strafford,nh,43.440423,-71.023648
3852,milton mills,strafford,nh,43.509859,-70.976413
3853,mirror lake,carroll,nh,43.639854,-71.292992
3854,new castle,rockingham,nh,43.064182,-70.722702
3855,new durham,strafford,nh,43.464286,-71.144355
3856,newfields,rockingham,nh,43.036983,-70.964427
3857,newmarket,rockingham,nh,43.068918,-70.951889
3858,newton,rockingham,nh,42.865368,-71.042977
3859,newton junction,rockingham,nh,42.8672,-71.0666
3859,newton jct,rockingham,nh,42.8672,-71.0666
3860,north conway,carroll,nh,44.028,-71.088333
3860,hales location,carroll,nh,44.028,-71.088333
3860,hales lctn,carroll,nh,44.028,-71.088333
3861,lee,strafford,nh,43.126468,-71.013397
3862,north hampton,rockingham,nh,42.979401,-70.829484
3864,ossipee,carroll,nh,43.692116,-71.113188
3865,plaistow,rockingham,nh,42.84281,-71.094632
3866,rochester,strafford,nh,43.2756,-70.9891
3867,rochester,strafford,nh,43.301315,-70.992932
3868,rochester,strafford,nh,43.345266,-70.945629
3869,rollinsford,strafford,nh,43.220254,-70.841662
3870,rye,rockingham,nh,43.01316,-70.713103
3871,rye beach,rockingham,nh,42.9768,-70.7664
3872,brookfield,carroll,nh,43.584992,-71.038237
3872,sanbornville,carroll,nh,43.584992,-71.038237
3873,sandown,rockingham,nh,42.930898,-71.184447
3874,seabrook,rockingham,nh,42.883886,-70.865663
3875,silver lake,carroll,nh,43.877824,-71.185722
3878,somersworth,strafford,nh,43.255458,-70.882996
3882,effingham,carroll,nh,43.737247,-71.04959
3883,s tamworth,carroll,nh,43.809042,-71.300205
3883,south tamworth,carroll,nh,43.809042,-71.300205
3884,strafford,strafford,nh,43.281412,-71.145228
3885,stratham,rockingham,nh,43.014556,-70.90049
3886,tamworth,carroll,nh,43.872217,-71.283678
3887,middleton,carroll,nh,43.476354,-71.055156
3887,union,carroll,nh,43.476354,-71.055156
3887,middleton,strafford,nh,43.476354,-71.055156
3887,union,strafford,nh,43.476354,-71.055156
3890,west ossipee,carroll,nh,43.82649,-71.200206
3894,wolfeboro,carroll,nh,43.59269,-71.160274
3896,wolfeboro falls,carroll,nh,43.5919,-71.2062
3896,wolfeboro fls,carroll,nh,43.5919,-71.2062
3897,wonalancet,carroll,nh,43.900555,-71.329262
3901,berwick,york,me,43.304751,-70.842121
3902,cape neddick,york,me,43.222476,-70.640226
3903,eliot,york,me,43.145788,-70.783181
3904,kittery,york,me,43.111432,-70.736996
3905,kittery point,york,me,43.098432,-70.686811
3906,north berwick,york,me,43.343302,-70.783915
3907,ogunquit,york,me,43.25235,-70.614601
3908,south berwick,york,me,43.241008,-70.740708
3909,york,york,me,43.164595,-70.675542
3910,york beach,york,me,43.1779,-70.6077
3911,york harbor,york,me,43.1367,-70.6462
4001,acton,york,me,43.525654,-70.916446
4002,lyman,york,me,43.496302,-70.68634
4002,alfred,york,me,43.496302,-70.68634
4003,bailey island,cumberland,me,43.741257,-69.992664
4004,bar mills,york,me,43.6133,-70.5506
4005,biddeford,york,me,43.496672,-70.48862
4005,dayton,york,me,43.496672,-70.48862
4006,biddeford pl,york,me,43.445466,-70.343406
4006,biddeford pool,york,me,43.445466,-70.343406
4007,biddeford,york,me,43.4927,-70.4537
4008,bowdoinham,sagadahoc,me,44.036698,-69.859204
4009,bridgton,cumberland,me,44.03396,-70.750882
4010,brownfield,oxford,me,43.959532,-70.90829
4011,birch island,cumberland,me,43.893092,-69.97231
4011,cundys harbor,cumberland,me,43.893092,-69.97231
4011,brunswick,cumberland,me,43.893092,-69.97231
4011,mere point,cumberland,me,43.893092,-69.97231
4013,s freeport,cumberland,me,43.800166,-70.071878
4013,bustins island,cumberland,me,43.800166,-70.071878
4013,bustins is,cumberland,me,43.800166,-70.071878
4013,south freeport,cumberland,me,43.800166,-70.071878
4014,cape porpoise,york,me,43.3706,-70.4379
4015,casco,cumberland,me,43.968619,-70.511506
4016,center lovell,oxford,me,44.170402,-70.866863
4017,chebeague is,cumberland,me,43.733748,-70.118125
4017,chebeague island,cumberland,me,43.733748,-70.118125
4019,cliff island,cumberland,me,43.696744,-70.103094
4020,cornish,york,me,43.761737,-70.807803
4021,cumberland center,cumberland,me,43.797285,-70.266476
4021,cumberlnd ctr,cumberland,me,43.797285,-70.266476
4021,cumberland,cumberland,me,43.797285,-70.266476
4022,denmark,oxford,me,43.981238,-70.790278
4024,east baldwin,cumberland,me,43.832407,-70.673648
4027,lebanon,york,me,43.403389,-70.900681
4028,east parsonsfield,york,me,43.7336,-70.8483
4028,e parsonfield,york,me,43.7336,-70.8483
4029,sebago,cumberland,me,43.891087,-70.662266
4030,e waterboro,york,me,43.586864,-70.702614
4030,east waterboro,york,me,43.586864,-70.702614
4032,freeport,cumberland,me,43.868552,-70.09767
4033,freeport,cumberland,me,43.8569,-70.1037
4034,freeport,cumberland,me,43.8569,-70.1037
4037,stow,oxford,me,44.081558,-70.912897
4037,fryeburg,oxford,me,44.081558,-70.912897
4037,north fryeburg,oxford,me,44.081558,-70.912897
4037,n fryeburg,oxford,me,44.081558,-70.912897
4038,gorham,cumberland,me,43.715428,-70.462344
4039,gray,cumberland,me,43.88758,-70.341074
4040,sweden,cumberland,me,44.090188,-70.662777
4040,harrison,oxford,me,44.090188,-70.662777
4040,harrison,cumberland,me,44.090188,-70.662777
4040,sweden,oxford,me,44.090188,-70.662777
4041,hiram,oxford,me,43.866455,-70.812214
4042,hollis center,york,me,43.631117,-70.61675
4043,kennebunk,york,me,43.396463,-70.572366
4046,arundel,york,me,43.418308,-70.498213
4046,kennebunkport,york,me,43.418308,-70.498213
4047,kezar falls,york,me,43.742046,-70.913568
4047,parsonsfield,york,me,43.742046,-70.913568
4048,limerick,york,me,43.689054,-70.78174
4049,limington,york,me,43.730793,-70.704814
4050,long island,cumberland,me,43.691349,-70.153599
4051,lovell,oxford,me,44.194834,-70.900717
4054,moody,york,me,43.2726,-70.5989
4055,naples,cumberland,me,43.971483,-70.625906
4056,newfield,york,me,43.6484,-70.8489
4057,n bridgton,cumberland,me,44.0996,-70.6997
4057,north bridgton,cumberland,me,44.0996,-70.6997
4061,north waterboro,york,me,43.63695,-70.744937
4061,n waterboro,york,me,43.63695,-70.744937
4062,n windham,cumberland,me,43.791745,-70.405627
4062,no windham,cumberland,me,43.791745,-70.405627
4062,north windham,cumberland,me,43.791745,-70.405627
4062,windham,cumberland,me,43.791745,-70.405627
4063,ocean park,york,me,43.5007,-70.3971
4064,old orchd bch,york,me,43.523242,-70.390641
4064,old orchard beach,york,me,43.523242,-70.390641
4066,orrs island,cumberland,me,43.772374,-69.966824
4068,porter,oxford,me,43.836947,-70.936057
4069,pownal,cumberland,me,43.894456,-70.183482
4070,scarborough,cumberland,me,43.5783,-70.3222
4071,frye island,cumberland,me,43.913642,-70.49675
4071,raymond,cumberland,me,43.913642,-70.49675
4072,saco,york,me,43.534032,-70.461988
4073,sanford,york,me,43.405431,-70.744776
4074,pine point,cumberland,me,43.591658,-70.373274
4074,scarborough,cumberland,me,43.591658,-70.373274
4076,n shapleigh,york,me,43.548807,-70.844392
4076,north shapleigh,york,me,43.548807,-70.844392
4076,shapleigh,york,me,43.548807,-70.844392
4077,south casco,cumberland,me,43.8731,-70.5138
4078,s freeport,cumberland,me,43.8208,-70.1064
4078,south freeport,cumberland,me,43.8208,-70.1064
4079,harpswell,cumberland,me,43.794741,-69.961822
4079,s harpswell,cumberland,me,43.794741,-69.961822
4079,south harpswell,cumberland,me,43.794741,-69.961822
4082,windham,cumberland,me,43.7375,-70.4304
4082,south windham,cumberland,me,43.7375,-70.4304
4083,springvale,york,me,43.464,-70.81817
4084,sebago lake,cumberland,me,43.771875,-70.552838
4084,standish,cumberland,me,43.771875,-70.552838
4085,steep falls,cumberland,me,43.763702,-70.623198
4086,pejepscot,sagadahoc,me,43.974146,-69.95819
4086,topsham,sagadahoc,me,43.974146,-69.95819
4087,waterboro,york,me,43.565926,-70.741487
4088,waterford,oxford,me,44.196396,-70.754224
4090,wells,york,me,43.322472,-70.632434
4090,wells beach,york,me,43.322472,-70.632434
4091,west baldwin,cumberland,me,43.833528,-70.73401
4092,westbrook,cumberland,me,43.693678,-70.355356
4093,buxton,york,me,43.633006,-70.535064
4094,west kennebunk,york,me,43.4065,-70.5804
4094,w kennebunk,york,me,43.4065,-70.5804
4095,west newfield,york,me,43.635173,-70.895254
4096,yarmouth,cumberland,me,43.794539,-70.170592
4097,n yarmouth,cumberland,me,43.857934,-70.234058
4097,north yarmouth,cumberland,me,43.857934,-70.234058
4098,westbrook,cumberland,me,43.6769,-70.3714
4101,portland,cumberland,me,43.660796,-70.261277
4102,portland,cumberland,me,43.663454,-70.302596
4103,portland,cumberland,me,43.693689,-70.290406
4104,portland,cumberland,me,43.6615,-70.2555
4105,falmouth,cumberland,me,43.748283,-70.273362
4105,portland,cumberland,me,43.748283,-70.273362
4106,s portland,cumberland,me,43.626315,-70.30073
4106,portland,cumberland,me,43.626315,-70.30073
4106,south portland,cumberland,me,43.626315,-70.30073
4107,portland,cumberland,me,43.593316,-70.23867
4107,cape eliz,cumberland,me,43.593316,-70.23867
4107,cape elizabeth,cumberland,me,43.593316,-70.23867
4107,pond cove,cumberland,me,43.593316,-70.23867
4108,portland,cumberland,me,43.669681,-70.191234
4108,peaks island,cumberland,me,43.669681,-70.191234
4109,cushing island,cumberland,me,43.652973,-70.201619
4109,cushing is,cumberland,me,43.652973,-70.201619
4109,diamond island,cumberland,me,43.652973,-70.201619
4109,diamond is,cumberland,me,43.652973,-70.201619
4109,portland,cumberland,me,43.652973,-70.201619
4109,ltle dia is,cumberland,me,43.652973,-70.201619
4109,diamond cove,cumberland,me,43.652973,-70.201619
4109,grt dia is,cumberland,me,43.652973,-70.201619
4109,great diamond island,cumberland,me,43.652973,-70.201619
4109,little diamond island,cumberland,me,43.652973,-70.201619
4110,cumb foreside,cumberland,me,43.76168,-70.198915
4110,cumberland foreside,cumberland,me,43.76168,-70.198915
4110,portland,cumberland,me,43.76168,-70.198915
4112,portland,cumberland,me,43.6615,-70.2555
4116,south portland,cumberland,me,43.6615,-70.2555
4116,s portland,cumberland,me,43.6615,-70.2555
4116,portland,cumberland,me,43.6615,-70.2555
4122,portland,cumberland,me,43.6615,-70.2555
4123,portland,cumberland,me,43.6615,-70.2555
4124,portland,cumberland,me,43.6615,-70.2555
4210,auburn,androscoggin,me,44.0862,-70.227183
4211,auburn,androscoggin,me,44.0976,-70.2319
4212,auburn,androscoggin,me,44.0976,-70.2319
4216,andover,oxford,me,44.737058,-70.861428
4217,bethel,oxford,me,44.407495,-70.836008
4217,mason twp,oxford,me,44.407495,-70.836008
4217,albany twp,oxford,me,44.407495,-70.836008
4217,gilead,oxford,me,44.407495,-70.836008
4219,bryant pond,oxford,me,44.410881,-70.629866
4219,milton twp,oxford,me,44.410881,-70.629866
4220,hartford,oxford,me,44.328618,-70.369245
4220,buckfield,oxford,me,44.328618,-70.369245
4221,canton,oxford,me,44.43451,-70.335724
4222,durham,androscoggin,me,43.96144,-70.130772
4223,danville,androscoggin,me,44.021,-70.2756
4224,carthage,oxford,me,44.579511,-70.415433
4224,dixfield,oxford,me,44.579511,-70.415433
4225,dryden,franklin,me,44.6206,-70.2577
4226,east andover,oxford,me,44.602324,-70.703188
4227,east dixfield,franklin,me,44.5744,-70.2996
4228,east livermore,androscoggin,me,44.414399,-70.138979
4228,e livermore,androscoggin,me,44.414399,-70.138979
4230,east poland,androscoggin,me,44.0701,-70.3286
4231,stoneham,oxford,me,44.261218,-70.880972
4231,e stoneham,oxford,me,44.261218,-70.880972
4234,east wilton,franklin,me,44.6175,-70.1905
4236,greene,androscoggin,me,44.192038,-70.146596
4237,hanover,oxford,me,44.500066,-70.737321
4238,hebron,oxford,me,44.202414,-70.374066
4239,jay,franklin,me,44.522978,-70.218567
4240,lewiston,androscoggin,me,44.086388,-70.157552
4241,lewiston,androscoggin,me,44.1004,-70.2155
4243,lewiston,androscoggin,me,44.1004,-70.2155
4250,lisbon,androscoggin,me,44.022202,-70.121605
4252,lisbon falls,androscoggin,me,44.025039,-70.058865
4252,lisbon,androscoggin,me,44.025039,-70.058865
4253,livermore,androscoggin,me,44.410728,-70.214543
4254,livermore fls,androscoggin,me,44.428344,-70.150154
4254,livermore falls,androscoggin,me,44.428344,-70.150154
4255,greenwood,oxford,me,44.317513,-70.675009
4256,mechanic falls,androscoggin,me,44.109418,-70.405228
4256,mechanic fls,androscoggin,me,44.109418,-70.405228
4257,mexico,oxford,me,44.572562,-70.524688
4258,minot,androscoggin,me,44.14948,-70.341393
4259,monmouth,kennebec,me,44.224482,-70.006364
4260,new gloucestr,cumberland,me,43.965522,-70.302464
4260,new gloucester,cumberland,me,43.965522,-70.302464
4261,upton,oxford,me,44.541786,-70.787954
4261,newry,oxford,me,44.541786,-70.787954
4262,north jay,franklin,me,44.5505,-70.2288
4263,leeds,androscoggin,me,44.288839,-70.136547
4265,n monmouth,kennebec,me,44.27269,-70.033321
4265,north monmouth,kennebec,me,44.27269,-70.033321
4266,north turner,androscoggin,me,44.342503,-70.256992
4267,n waterford,oxford,me,44.2079,-70.7158
4267,north waterford,oxford,me,44.2079,-70.7158
4268,norway,oxford,me,44.233648,-70.614699
4270,otisfield,oxford,me,44.103769,-70.502872
4270,oxford,oxford,me,44.103769,-70.502872
4271,paris,oxford,me,44.2599,-70.5024
4274,poland spring,androscoggin,me,44.045581,-70.38708
4274,poland,androscoggin,me,44.045581,-70.38708
4275,roxbury,oxford,me,44.74792,-70.705129
4275,byron,oxford,me,44.74792,-70.705129
4276,rumford point,oxford,me,44.53668,-70.607892
4276,rumford,oxford,me,44.53668,-70.607892
4276,rumford center,oxford,me,44.53668,-70.607892
4276,rumford ctr,oxford,me,44.53668,-70.607892
4280,sabattus,androscoggin,me,44.131658,-70.060728
4280,wales,androscoggin,me,44.131658,-70.060728
4281,south paris,oxford,me,44.242188,-70.47831
4282,turner,androscoggin,me,44.270562,-70.249816
4284,wayne,kennebec,me,44.337045,-70.071324
4285,weld,franklin,me,44.70705,-70.454567
4286,west bethel,oxford,me,44.4015,-70.8569
4287,w bowdoin,sagadahoc,me,44.057558,-69.968245
4287,bowdoin,sagadahoc,me,44.057558,-69.968245
4288,west minot,androscoggin,me,44.1714,-70.3642
4289,west paris,oxford,me,44.323037,-70.537036
4290,peru,oxford,me,44.476736,-70.455404
4291,west poland,androscoggin,me,44.0513,-70.4533
4292,sumner,oxford,me,44.376541,-70.442529
4294,perkins twp,franklin,me,44.63274,-70.266331
4294,wilton,franklin,me,44.63274,-70.266331
4330,chelsea,kennebec,me,44.378827,-69.730954
4330,sidney,kennebec,me,44.378827,-69.730954
4330,augusta,kennebec,me,44.378827,-69.730954
4332,augusta,kennebec,me,44.3108,-69.7803
4333,augusta,kennebec,me,44.306762,-69.782301
4336,augusta,kennebec,me,44.3108,-69.7803
4338,augusta,kennebec,me,44.3108,-69.7803
4341,coopers mills,lincoln,me,44.317286,-69.433741
4342,dresden,lincoln,me,44.076598,-69.740103
4343,east winthrop,kennebec,me,44.3226,-69.9006
4344,farmingdale,kennebec,me,44.259998,-69.822356
4345,pittston,kennebec,me,44.196526,-69.8019
4345,gardiner,kennebec,me,44.196526,-69.8019
4345,west gardiner,kennebec,me,44.196526,-69.8019
4346,randolph,kennebec,me,44.233394,-69.740682
4347,hallowell,kennebec,me,44.288494,-69.816749
4348,jefferson,lincoln,me,44.221926,-69.497712
4348,somerville,lincoln,me,44.221926,-69.497712
4349,kents hill,kennebec,me,44.435084,-70.073138
4349,fayette,kennebec,me,44.435084,-70.073138
4350,litchfield,kennebec,me,44.165377,-69.937715
4351,manchester,kennebec,me,44.329728,-69.867897
4352,mount vernon,kennebec,me,44.473504,-69.959606
4353,whitefield,lincoln,me,44.200735,-69.606083
4354,palermo,waldo,me,44.395965,-69.42429
4355,readfield,kennebec,me,44.389399,-69.952396
4357,richmond,sagadahoc,me,44.123306,-69.828068
4358,weeks mills,kennebec,me,44.420472,-69.53137
4358,china,kennebec,me,44.420472,-69.53137
4358,south china,kennebec,me,44.420472,-69.53137
4359,s gardiner,kennebec,me,44.1792,-69.7604
4359,south gardiner,kennebec,me,44.1792,-69.7604
4360,vienna,kennebec,me,44.536683,-70.002189
4363,windsor,kennebec,me,44.311429,-69.578494
4364,winthrop,kennebec,me,44.311894,-69.962531
4401,veazie,penobscot,me,44.863639,-68.815722
4401,glenburn,penobscot,me,44.863639,-68.815722
4401,bangor,penobscot,me,44.863639,-68.815722
4401,hermon,penobscot,me,44.863639,-68.815722
4402,bangor,penobscot,me,44.8012,-68.7783
4406,abbot,piscataquis,me,45.286232,-69.552802
4406,blanchard twp,piscataquis,me,45.286232,-69.552802
4408,great pond,hancock,me,44.913,-68.351688
4408,aurora,hancock,me,44.913,-68.351688
4410,bradford,penobscot,me,45.088264,-68.907054
4411,bradley,penobscot,me,44.880432,-68.570351
4412,brewer,penobscot,me,44.781038,-68.736102
4413,frst city twp,washington,me,45.595073,-67.661981
4413,brookton,washington,me,45.595073,-67.661981
4413,forest city twp,washington,me,45.595073,-67.661981
4413,forest twp,washington,me,45.595073,-67.661981
4414,brownville,piscataquis,me,45.39096,-69.018468
4414,wiliamsbg twp,piscataquis,me,45.39096,-69.018468
4414,barnard twp,piscataquis,me,45.39096,-69.018468
4414,williamsburg twp,piscataquis,me,45.39096,-69.018468
4414,ebeemee twp,piscataquis,me,45.39096,-69.018468
4415,brownvlle jct,piscataquis,me,45.3503,-69.0529
4415,brownville junction,piscataquis,me,45.3503,-69.0529
4416,bucksport,hancock,me,44.610843,-68.742679
4416,verona island,hancock,me,44.610843,-68.742679
4417,burlington,penobscot,me,45.192984,-68.410492
4418,olamon,penobscot,me,45.042986,-68.518064
4418,cardville,penobscot,me,45.042986,-68.518064
4418,costigan,penobscot,me,45.042986,-68.518064
4418,greenfld twp,penobscot,me,45.042986,-68.518064
4418,greenbush,penobscot,me,45.042986,-68.518064
4418,greenfield twp,penobscot,me,45.042986,-68.518064
4419,carmel,penobscot,me,44.80037,-68.998976
4420,castine,hancock,me,44.3879,-68.8003
4421,castine,hancock,me,44.41488,-68.793544
4422,charleston,penobscot,me,45.071399,-69.034052
4424,danforth,washington,me,45.529725,-67.861765
4424,weston,washington,me,45.529725,-67.861765
4426,dovr foxcroft,piscataquis,me,45.238598,-69.204766
4426,sebec,piscataquis,me,45.238598,-69.204766
4426,bowerbank,piscataquis,me,45.238598,-69.204766
4426,atkinson,piscataquis,me,45.238598,-69.204766
4426,dvr foxcroft,piscataquis,me,45.238598,-69.204766
4426,dover foxcroft,piscataquis,me,45.238598,-69.204766
4427,corinth,penobscot,me,44.9803,-69.010626
4428,eddington,penobscot,me,44.807537,-68.573372
4428,clifton,penobscot,me,44.807537,-68.573372
4429,dedham,penobscot,me,44.726592,-68.620331
4429,holden,hancock,me,44.726592,-68.620331
4429,holden,penobscot,me,44.726592,-68.620331
4429,dedham,hancock,me,44.726592,-68.620331
4429,east holden,hancock,me,44.726592,-68.620331
4429,east holden,penobscot,me,44.726592,-68.620331
4430,e millinocket,penobscot,me,45.643428,-68.58843
4430,east millinocket,penobscot,me,45.643428,-68.58843
4431,east orland,hancock,me,44.570537,-68.672773
4434,etna,penobscot,me,44.78473,-69.134804
4435,exeter,penobscot,me,44.963885,-69.146126
4438,frankfort,waldo,me,44.599622,-68.92092
4441,frenchtwn twp,piscataquis,me,45.533506,-69.466488
4441,frenchtown twp,piscataquis,me,45.533506,-69.466488
4441,lily bay twp,piscataquis,me,45.533506,-69.466488
4441,greenville,piscataquis,me,45.533506,-69.466488
4441,shirley,piscataquis,me,45.533506,-69.466488
4441,beaver cove,piscataquis,me,45.533506,-69.466488
4442,greenvlle jct,somerset,me,45.530307,-69.663894
4442,greenville junction,somerset,me,45.530307,-69.663894
4442,greenvlle jct,piscataquis,me,45.530307,-69.663894
